[{"longitude":"10.121875","registeredVoters":"536","signingVoters":"400","center_name":"E.P.ZOUHOUR 4 PROLONGEE HRAIRIA","latitude":"36.793974"},{"longitude":"10.121875","registeredVoters":"536","signingVoters":"406","center_name":"E.P.ZOUHOUR 4 PROLONGEE HRAIRIA","latitude":"36.793974"},{"longitude":"10.121875","registeredVoters":"535","signingVoters":"352","center_name":"E.P.ZOUHOUR 4 PROLONGEE HRAIRIA","latitude":"36.793974"},{"longitude":"10.123078","registeredVoters":"456","signingVoters":"368","center_name":"E.P.2 MARS 34 HRAIRIA 4 -HRAIRIA","latitude":"36.787866"},{"longitude":"10.123078","registeredVoters":"456","signingVoters":"347","center_name":"E.P.2 MARS 34 HRAIRIA 4 -HRAIRIA","latitude":"36.787866"},{"longitude":"10.123078","registeredVoters":"456","signingVoters":"332","center_name":"E.P.2 MARS 34 HRAIRIA 4 -HRAIRIA","latitude":"36.787866"},{"longitude":"10.123078","registeredVoters":"454","signingVoters":"300","center_name":"E.P.2 MARS 34 HRAIRIA 4 -HRAIRIA","latitude":"36.787866"},{"longitude":"10.121185","registeredVoters":"567","signingVoters":"442","center_name":"E.P.HRAIRIA 3 -HRAIRIA","latitude":"36.790492"},{"longitude":"10.121185","registeredVoters":"566","signingVoters":"374","center_name":"E.P.HRAIRIA 3 -HRAIRIA","latitude":"36.790492"},{"longitude":"10.109886","registeredVoters":"596","signingVoters":"460","center_name":"E.P.ZOUHOUR 5 PROLONGEE 1","latitude":"36.789193"},{"longitude":"10.109886","registeredVoters":"596","signingVoters":"459","center_name":"E.P.ZOUHOUR 5 PROLONGEE 1","latitude":"36.789193"},{"longitude":"10.109886","registeredVoters":"596","signingVoters":"447","center_name":"E.P.ZOUHOUR 5 PROLONGEE 1","latitude":"36.789193"},{"longitude":"10.109886","registeredVoters":"596","signingVoters":"389","center_name":"E.P.ZOUHOUR 5 PROLONGEE 1","latitude":"36.789193"},{"longitude":"10.109886","registeredVoters":"593","signingVoters":"382","center_name":"E.P.ZOUHOUR 5 PROLONGEE 1","latitude":"36.789193"},{"longitude":"10.109431","registeredVoters":"461","signingVoters":"332","center_name":"E.P. ALMOUMTAD2 EZZOUHOUR 5","latitude":"36.788784"},{"longitude":"10.109431","registeredVoters":"461","signingVoters":"335","center_name":"E.P. ALMOUMTAD2 EZZOUHOUR 5","latitude":"36.788784"},{"longitude":"10.109431","registeredVoters":"459","signingVoters":"295","center_name":"E.P. ALMOUMTAD2 EZZOUHOUR 5","latitude":"36.788784"},{"longitude":"10.117346","registeredVoters":"553","signingVoters":"413","center_name":"E.P.ZOUHOUR 5-1 -ZOUHOUR 5","latitude":"36.792787"},{"longitude":"10.117346","registeredVoters":"553","signingVoters":"398","center_name":"E.P.ZOUHOUR 5-1 -ZOUHOUR 5","latitude":"36.792787"},{"longitude":"10.117346","registeredVoters":"553","signingVoters":"387","center_name":"E.P.ZOUHOUR 5-1 -ZOUHOUR 5","latitude":"36.792787"},{"longitude":"10.117346","registeredVoters":"551","signingVoters":"352","center_name":"E.P.ZOUHOUR 5-1 -ZOUHOUR 5","latitude":"36.792787"},{"longitude":"10.10206","registeredVoters":"557","signingVoters":"424","center_name":"E.P.OKBA IBN NAFAA 2 -ZHOUR 5","latitude":"36.788152"},{"longitude":"10.10206","registeredVoters":"557","signingVoters":"398","center_name":"E.P.OKBA IBN NAFAA 2 -ZHOUR 5","latitude":"36.788152"},{"longitude":"10.10206","registeredVoters":"557","signingVoters":"415","center_name":"E.P.OKBA IBN NAFAA 2 -ZHOUR 5","latitude":"36.788152"},{"longitude":"10.10206","registeredVoters":"557","signingVoters":"372","center_name":"E.P.OKBA IBN NAFAA 2 -ZHOUR 5","latitude":"36.788152"},{"longitude":"10.10206","registeredVoters":"557","signingVoters":"331","center_name":"E.P.OKBA IBN NAFAA 2 -ZHOUR 5","latitude":"36.788152"},{"longitude":"10.10206","registeredVoters":"557","signingVoters":"370","center_name":"E.P.OKBA IBN NAFAA 2 -ZHOUR 5","latitude":"36.788152"},{"longitude":"10.106536","registeredVoters":"567","signingVoters":"395","center_name":"E.P.CITE ZOUHOUR 5-2","latitude":"36.789508"},{"longitude":"10.106536","registeredVoters":"566","signingVoters":"363","center_name":"E.P.CITE ZOUHOUR 5-2","latitude":"36.789508"},{"longitude":"10.101569","registeredVoters":"545","signingVoters":"410","center_name":"E.P.OKBA IBN NAFAA 1","latitude":"36.787875"},{"longitude":"10.101569","registeredVoters":"545","signingVoters":"416","center_name":"E.P.OKBA IBN NAFAA 1","latitude":"36.787875"},{"longitude":"10.101569","registeredVoters":"545","signingVoters":"354","center_name":"E.P.OKBA IBN NAFAA 1","latitude":"36.787875"},{"longitude":"10.101569","registeredVoters":"543","signingVoters":"336","center_name":"E.P.OKBA IBN NAFAA 1","latitude":"36.787875"},{"longitude":"10.096394","registeredVoters":"547","signingVoters":"424","center_name":"E.P.MECHTEL 1 -AGBA","latitude":"36.793735"},{"longitude":"10.096394","registeredVoters":"547","signingVoters":"441","center_name":"E.P.MECHTEL 1 -AGBA","latitude":"36.793735"},{"longitude":"10.096394","registeredVoters":"547","signingVoters":"435","center_name":"E.P.MECHTEL 1 -AGBA","latitude":"36.793735"},{"longitude":"10.096394","registeredVoters":"547","signingVoters":"442","center_name":"E.P.MECHTEL 1 -AGBA","latitude":"36.793735"},{"longitude":"10.096394","registeredVoters":"547","signingVoters":"377","center_name":"E.P.MECHTEL 1 -AGBA","latitude":"36.793735"},{"longitude":"10.096394","registeredVoters":"547","signingVoters":"372","center_name":"E.P.MECHTEL 1 -AGBA","latitude":"36.793735"},{"longitude":"10.100729","registeredVoters":"345","signingVoters":"279","center_name":"E.P.MECHTEL 2 AGBA","latitude":"36.788089"},{"longitude":"10.100729","registeredVoters":"344","signingVoters":"247","center_name":"E.P.MECHTEL 2 AGBA","latitude":"36.788089"},{"longitude":"10.087417","registeredVoters":"493","signingVoters":"421","center_name":"E.P.CITE ESSAHA HRAIRIA AGBA SUP","latitude":"36.792602"},{"longitude":"10.087417","registeredVoters":"493","signingVoters":"413","center_name":"E.P.CITE ESSAHA HRAIRIA AGBA SUP","latitude":"36.792602"},{"longitude":"10.087417","registeredVoters":"493","signingVoters":"367","center_name":"E.P.CITE ESSAHA HRAIRIA AGBA SUP","latitude":"36.792602"},{"longitude":"10.087417","registeredVoters":"491","signingVoters":"393","center_name":"E.P.CITE ESSAHA HRAIRIA AGBA SUP","latitude":"36.792602"},{"longitude":"10.053083","registeredVoters":"572","signingVoters":"445","center_name":"E.P.GHEDIR EL GOULLA","latitude":"36.779258"},{"longitude":"10.053083","registeredVoters":"572","signingVoters":"426","center_name":"E.P.GHEDIR EL GOULLA","latitude":"36.779258"},{"longitude":"10.117346","registeredVoters":"536","signingVoters":"436","center_name":"E.P.CITE EL ANTIT","latitude":"36.792787"},{"longitude":"10.117346","registeredVoters":"536","signingVoters":"399","center_name":"E.P.CITE EL ANTIT","latitude":"36.792787"},{"longitude":"10.117346","registeredVoters":"536","signingVoters":"392","center_name":"E.P.CITE EL ANTIT","latitude":"36.792787"},{"longitude":"10.117346","registeredVoters":"536","signingVoters":"369","center_name":"E.P.CITE EL ANTIT","latitude":"36.792787"},{"longitude":"10.117346","registeredVoters":"533","signingVoters":"380","center_name":"E.P.CITE EL ANTIT","latitude":"36.792787"},{"longitude":"10.10535617","registeredVoters":"523","signingVoters":"421","center_name":"E.P.CITE FOLLA","latitude":"36.7971584"},{"longitude":"10.10535617","registeredVoters":"523","signingVoters":"407","center_name":"E.P.CITE FOLLA","latitude":"36.7971584"},{"longitude":"10.10535617","registeredVoters":"523","signingVoters":"418","center_name":"E.P.CITE FOLLA","latitude":"36.7971584"},{"longitude":"10.10535617","registeredVoters":"523","signingVoters":"403","center_name":"E.P.CITE FOLLA","latitude":"36.7971584"},{"longitude":"10.10535617","registeredVoters":"523","signingVoters":"361","center_name":"E.P.CITE FOLLA","latitude":"36.7971584"},{"longitude":"10.117796","registeredVoters":"491","signingVoters":"414","center_name":"E.P.C. BOUZAIEN EZOUHOUR -TAREK IBN ZIED","latitude":"36.795704"},{"longitude":"10.117796","registeredVoters":"491","signingVoters":"390","center_name":"E.P.C. BOUZAIEN EZOUHOUR -TAREK IBN ZIED","latitude":"36.795704"},{"longitude":"10.117796","registeredVoters":"491","signingVoters":"367","center_name":"E.P.C. BOUZAIEN EZOUHOUR -TAREK IBN ZIED","latitude":"36.795704"},{"longitude":"10.117796","registeredVoters":"491","signingVoters":"336","center_name":"E.P.C. BOUZAIEN EZOUHOUR -TAREK IBN ZIED","latitude":"36.795704"},{"longitude":"10.118644","registeredVoters":"579","signingVoters":"446","center_name":"E.P.18 JANVIER HRAIRIA EZZAHROUNI","latitude":"36.79031"},{"longitude":"10.118644","registeredVoters":"579","signingVoters":"447","center_name":"E.P.18 JANVIER HRAIRIA EZZAHROUNI","latitude":"36.79031"},{"longitude":"10.118644","registeredVoters":"579","signingVoters":"389","center_name":"E.P.18 JANVIER HRAIRIA EZZAHROUNI","latitude":"36.79031"},{"longitude":"10.118644","registeredVoters":"579","signingVoters":"368","center_name":"E.P.18 JANVIER HRAIRIA EZZAHROUNI","latitude":"36.79031"},{"longitude":"10.11637641","registeredVoters":"580","signingVoters":"429","center_name":"E.P.EZZAHROUNI","latitude":"36.79302664"},{"longitude":"10.11637641","registeredVoters":"580","signingVoters":"438","center_name":"E.P.EZZAHROUNI","latitude":"36.79302664"},{"longitude":"10.11637641","registeredVoters":"580","signingVoters":"426","center_name":"E.P.EZZAHROUNI","latitude":"36.79302664"},{"longitude":"10.11637641","registeredVoters":"580","signingVoters":"350","center_name":"E.P.EZZAHROUNI","latitude":"36.79302664"},{"longitude":"10.11637641","registeredVoters":"580","signingVoters":"348","center_name":"E.P.EZZAHROUNI","latitude":"36.79302664"},{"longitude":"10.11637641","registeredVoters":"574","signingVoters":"352","center_name":"E.P.EZZAHROUNI","latitude":"36.79302664"},{"longitude":"10.115613","registeredVoters":"598","signingVoters":"467","center_name":"E.P.CITE ESSALAMA EZZAHROUNI","latitude":"36.784719"},{"longitude":"10.115613","registeredVoters":"598","signingVoters":"410","center_name":"E.P.CITE ESSALAMA EZZAHROUNI","latitude":"36.784719"},{"longitude":"10.115613","registeredVoters":"598","signingVoters":"370","center_name":"E.P.CITE ESSALAMA EZZAHROUNI","latitude":"36.784719"},{"longitude":"10.158533","registeredVoters":"584","signingVoters":"421","center_name":"E.P.2 MARS 34 MALLASSINE -ALI BELHOUANE","latitude":"36.798096"},{"longitude":"10.158533","registeredVoters":"584","signingVoters":"398","center_name":"E.P.2 MARS 34 MALLASSINE -ALI BELHOUANE","latitude":"36.798096"},{"longitude":"10.158533","registeredVoters":"584","signingVoters":"412","center_name":"E.P.2 MARS 34 MALLASSINE -ALI BELHOUANE","latitude":"36.798096"},{"longitude":"10.158533","registeredVoters":"584","signingVoters":"385","center_name":"E.P.2 MARS 34 MALLASSINE -ALI BELHOUANE","latitude":"36.798096"},{"longitude":"10.158533","registeredVoters":"584","signingVoters":"416","center_name":"E.P.2 MARS 34 MALLASSINE -ALI BELHOUANE","latitude":"36.798096"},{"longitude":"10.158533","registeredVoters":"584","signingVoters":"363","center_name":"E.P.2 MARS 34 MALLASSINE -ALI BELHOUANE","latitude":"36.798096"},{"longitude":"10.158533","registeredVoters":"584","signingVoters":"347","center_name":"E.P.2 MARS 34 MALLASSINE -ALI BELHOUANE","latitude":"36.798096"},{"longitude":"10.158533","registeredVoters":"580","signingVoters":"364","center_name":"E.P.2 MARS 34 MALLASSINE -ALI BELHOUANE","latitude":"36.798096"},{"longitude":"10.1619","registeredVoters":"575","signingVoters":"404","center_name":"E.P.EN'NAJEH MALLASSINE","latitude":"36.790653"},{"longitude":"10.1619","registeredVoters":"575","signingVoters":"348","center_name":"E.P.EN'NAJEH MALLASSINE","latitude":"36.790653"},{"longitude":"10.1619","registeredVoters":"574","signingVoters":"306","center_name":"E.P.EN'NAJEH MALLASSINE","latitude":"36.790653"},{"longitude":"10.158698","registeredVoters":"470","signingVoters":"330","center_name":"E.P.BAB KHALED MALLASSINE -ENNAJEH","latitude":"36.792488"},{"longitude":"10.158698","registeredVoters":"470","signingVoters":"322","center_name":"E.P.BAB KHALED MALLASSINE -ENNAJEH","latitude":"36.792488"},{"longitude":"10.158698","registeredVoters":"470","signingVoters":"268","center_name":"E.P.BAB KHALED MALLASSINE -ENNAJEH","latitude":"36.792488"},{"longitude":"10.1699","registeredVoters":"561","signingVoters":"431","center_name":"E.P.7 RUE DOCTEUR CASSAR","latitude":"36.80274"},{"longitude":"10.1699","registeredVoters":"561","signingVoters":"460","center_name":"E.P.7 RUE DOCTEUR CASSAR","latitude":"36.80274"},{"longitude":"10.1699","registeredVoters":"561","signingVoters":"400","center_name":"E.P.7 RUE DOCTEUR CASSAR","latitude":"36.80274"},{"longitude":"10.1699","registeredVoters":"561","signingVoters":"415","center_name":"E.P.7 RUE DOCTEUR CASSAR","latitude":"36.80274"},{"longitude":"10.1699","registeredVoters":"561","signingVoters":"390","center_name":"E.P.7 RUE DOCTEUR CASSAR","latitude":"36.80274"},{"longitude":"10.1699","registeredVoters":"561","signingVoters":"371","center_name":"E.P.7 RUE DOCTEUR CASSAR","latitude":"36.80274"},{"longitude":"10.1699","registeredVoters":"556","signingVoters":"332","center_name":"E.P.7 RUE DOCTEUR CASSAR","latitude":"36.80274"},{"longitude":"10.164906","registeredVoters":"564","signingVoters":"448","center_name":"E.P.PLACE LEADER -BAB MNARA","latitude":"36.79269"},{"longitude":"10.164906","registeredVoters":"564","signingVoters":"421","center_name":"E.P.PLACE LEADER -BAB MNARA","latitude":"36.79269"},{"longitude":"10.164906","registeredVoters":"562","signingVoters":"397","center_name":"E.P.PLACE LEADER -BAB MNARA","latitude":"36.79269"},{"longitude":"10.173194","registeredVoters":"590","signingVoters":"463","center_name":"E.P.BAB JEDID -TOURBIT ELBEY","latitude":"36.79216"},{"longitude":"10.173194","registeredVoters":"590","signingVoters":"469","center_name":"E.P.BAB JEDID -TOURBIT ELBEY","latitude":"36.79216"},{"longitude":"10.173194","registeredVoters":"590","signingVoters":"447","center_name":"E.P.BAB JEDID -TOURBIT ELBEY","latitude":"36.79216"},{"longitude":"10.173194","registeredVoters":"590","signingVoters":"410","center_name":"E.P.BAB JEDID -TOURBIT ELBEY","latitude":"36.79216"},{"longitude":"10.173194","registeredVoters":"590","signingVoters":"404","center_name":"E.P.BAB JEDID -TOURBIT ELBEY","latitude":"36.79216"},{"longitude":"10.173194","registeredVoters":"590","signingVoters":"434","center_name":"E.P.BAB JEDID -TOURBIT ELBEY","latitude":"36.79216"},{"longitude":"10.173194","registeredVoters":"584","signingVoters":"366","center_name":"E.P.BAB JEDID -TOURBIT ELBEY","latitude":"36.79216"},{"longitude":"10.174021","registeredVoters":"565","signingVoters":"417","center_name":"E.P.RUE KOTTAB LOUZIR -SIDI ALI AZOUZ","latitude":"36.796852"},{"longitude":"10.174021","registeredVoters":"565","signingVoters":"398","center_name":"E.P.RUE KOTTAB LOUZIR -SIDI ALI AZOUZ","latitude":"36.796852"},{"longitude":"10.174021","registeredVoters":"563","signingVoters":"344","center_name":"E.P.RUE KOTTAB LOUZIR -SIDI ALI AZOUZ","latitude":"36.796852"},{"longitude":"10.166001","registeredVoters":"515","signingVoters":"389","center_name":"E.P.SADIKI RUE SINAN PACHA TAOUFIK","latitude":"36.798828"},{"longitude":"10.166001","registeredVoters":"515","signingVoters":"401","center_name":"E.P.SADIKI RUE SINAN PACHA TAOUFIK","latitude":"36.798828"},{"longitude":"10.166001","registeredVoters":"515","signingVoters":"390","center_name":"E.P.SADIKI RUE SINAN PACHA TAOUFIK","latitude":"36.798828"},{"longitude":"10.166001","registeredVoters":"515","signingVoters":"359","center_name":"E.P.SADIKI RUE SINAN PACHA TAOUFIK","latitude":"36.798828"},{"longitude":"10.166001","registeredVoters":"513","signingVoters":"366","center_name":"E.P.SADIKI RUE SINAN PACHA TAOUFIK","latitude":"36.798828"},{"longitude":"10.179261","registeredVoters":"532","signingVoters":"423","center_name":"E.P.EL WAFA RUE SALAH MALKI -OUARDIA","latitude":"36.769611"},{"longitude":"10.179261","registeredVoters":"532","signingVoters":"422","center_name":"E.P.EL WAFA RUE SALAH MALKI -OUARDIA","latitude":"36.769611"},{"longitude":"10.179261","registeredVoters":"532","signingVoters":"406","center_name":"E.P.EL WAFA RUE SALAH MALKI -OUARDIA","latitude":"36.769611"},{"longitude":"10.179261","registeredVoters":"532","signingVoters":"385","center_name":"E.P.EL WAFA RUE SALAH MALKI -OUARDIA","latitude":"36.769611"},{"longitude":"10.179261","registeredVoters":"532","signingVoters":"415","center_name":"E.P.EL WAFA RUE SALAH MALKI -OUARDIA","latitude":"36.769611"},{"longitude":"10.179261","registeredVoters":"527","signingVoters":"350","center_name":"E.P.EL WAFA RUE SALAH MALKI -OUARDIA","latitude":"36.769611"},{"longitude":"10.1915","registeredVoters":"574","signingVoters":"451","center_name":"E.P.RUE KHARROUBA -HABIB BOUGATFA","latitude":"36.776845"},{"longitude":"10.1915","registeredVoters":"574","signingVoters":"471","center_name":"E.P.RUE KHARROUBA -HABIB BOUGATFA","latitude":"36.776845"},{"longitude":"10.1915","registeredVoters":"574","signingVoters":"466","center_name":"E.P.RUE KHARROUBA -HABIB BOUGATFA","latitude":"36.776845"},{"longitude":"10.1915","registeredVoters":"574","signingVoters":"398","center_name":"E.P.RUE KHARROUBA -HABIB BOUGATFA","latitude":"36.776845"},{"longitude":"10.1915","registeredVoters":"574","signingVoters":"448","center_name":"E.P.RUE KHARROUBA -HABIB BOUGATFA","latitude":"36.776845"},{"longitude":"10.1915","registeredVoters":"573","signingVoters":"434","center_name":"E.P.RUE KHARROUBA -HABIB BOUGATFA","latitude":"36.776845"},{"longitude":"10.182757","registeredVoters":"436","signingVoters":"366","center_name":"E.P.CITE IZDIHAR -OURDIA","latitude":"36.770372"},{"longitude":"10.182757","registeredVoters":"436","signingVoters":"343","center_name":"E.P.CITE IZDIHAR -OURDIA","latitude":"36.770372"},{"longitude":"10.182757","registeredVoters":"437","signingVoters":"361","center_name":"E.P.CITE IZDIHAR -OURDIA","latitude":"36.770372"},{"longitude":"10.181368","registeredVoters":"522","signingVoters":"456","center_name":"E.P.2 MARS MONFOCON LA CANIA -IZDIHAR","latitude":"36.772516"},{"longitude":"10.189645","registeredVoters":"474","signingVoters":"331","center_name":"E.P.CITE MED ALI","latitude":"36.767169"},{"longitude":"10.188725","registeredVoters":"519","signingVoters":"369","center_name":"E.P.RUE DE LA SOMME -SIDIBELHASSEN","latitude":"36.778803"},{"longitude":"10.188725","registeredVoters":"519","signingVoters":"376","center_name":"E.P.RUE DE LA SOMME -SIDIBELHASSEN","latitude":"36.778803"},{"longitude":"10.188725","registeredVoters":"519","signingVoters":"365","center_name":"E.P.RUE DE LA SOMME -SIDIBELHASSEN","latitude":"36.778803"},{"longitude":"10.188725","registeredVoters":"519","signingVoters":"321","center_name":"E.P.RUE DE LA SOMME -SIDIBELHASSEN","latitude":"36.778803"},{"longitude":"10.188725","registeredVoters":"519","signingVoters":"385","center_name":"E.P.RUE DE LA SOMME -SIDIBELHASSEN","latitude":"36.778803"},{"longitude":"10.188725","registeredVoters":"514","signingVoters":"347","center_name":"E.P.RUE DE LA SOMME -SIDIBELHASSEN","latitude":"36.778803"},{"longitude":"10.178131","registeredVoters":"525","signingVoters":"402","center_name":"E.P.RUE CHARLES DE GAULLE Bab Bhar","latitude":"36.794697"},{"longitude":"10.178131","registeredVoters":"525","signingVoters":"395","center_name":"E.P.RUE CHARLES DE GAULLE Bab Bhar","latitude":"36.794697"},{"longitude":"10.178131","registeredVoters":"525","signingVoters":"372","center_name":"E.P.RUE CHARLES DE GAULLE Bab Bhar","latitude":"36.794697"},{"longitude":"10.178131","registeredVoters":"525","signingVoters":"358","center_name":"E.P.RUE CHARLES DE GAULLE Bab Bhar","latitude":"36.794697"},{"longitude":"10.178131","registeredVoters":"525","signingVoters":"318","center_name":"E.P.RUE CHARLES DE GAULLE Bab Bhar","latitude":"36.794697"},{"longitude":"10.178131","registeredVoters":"522","signingVoters":"265","center_name":"E.P.RUE CHARLES DE GAULLE Bab Bhar","latitude":"36.794697"},{"longitude":"10.17733961","registeredVoters":"506","signingVoters":"417","center_name":"E.P.17 RUE DE RUSSIE","latitude":"36.794551"},{"longitude":"10.17733961","registeredVoters":"506","signingVoters":"378","center_name":"E.P.17 RUE DE RUSSIE","latitude":"36.794551"},{"longitude":"10.17733961","registeredVoters":"506","signingVoters":"369","center_name":"E.P.17 RUE DE RUSSIE","latitude":"36.794551"},{"longitude":"10.17733961","registeredVoters":"506","signingVoters":"305","center_name":"E.P.17 RUE DE RUSSIE","latitude":"36.794551"},{"longitude":"10.17729156","registeredVoters":"542","signingVoters":"423","center_name":"E.P.16 RUE DE RUSSIE -BAB BHAR","latitude":"36.79524883"},{"longitude":"10.17729156","registeredVoters":"542","signingVoters":"433","center_name":"E.P.16 RUE DE RUSSIE -BAB BHAR","latitude":"36.79524883"},{"longitude":"10.17729156","registeredVoters":"542","signingVoters":"401","center_name":"E.P.16 RUE DE RUSSIE -BAB BHAR","latitude":"36.79524883"},{"longitude":"10.17729156","registeredVoters":"542","signingVoters":"386","center_name":"E.P.16 RUE DE RUSSIE -BAB BHAR","latitude":"36.79524883"},{"longitude":"10.17729156","registeredVoters":"542","signingVoters":"393","center_name":"E.P.16 RUE DE RUSSIE -BAB BHAR","latitude":"36.79524883"},{"longitude":"10.17729156","registeredVoters":"538","signingVoters":"314","center_name":"E.P.16 RUE DE RUSSIE -BAB BHAR","latitude":"36.79524883"},{"longitude":"10.18236","registeredVoters":"597","signingVoters":"497","center_name":"E.P.18 RUE DE L'INDE -LES JARDINS","latitude":"36.811464"},{"longitude":"10.18236","registeredVoters":"597","signingVoters":"500","center_name":"E.P.18 RUE DE L'INDE -LES JARDINS","latitude":"36.811464"},{"longitude":"10.18236","registeredVoters":"597","signingVoters":"503","center_name":"E.P.18 RUE DE L'INDE -LES JARDINS","latitude":"36.811464"},{"longitude":"10.18236","registeredVoters":"597","signingVoters":"482","center_name":"E.P.18 RUE DE L'INDE -LES JARDINS","latitude":"36.811464"},{"longitude":"10.18236","registeredVoters":"597","signingVoters":"498","center_name":"E.P.18 RUE DE L'INDE -LES JARDINS","latitude":"36.811464"},{"longitude":"10.18236","registeredVoters":"597","signingVoters":"481","center_name":"E.P.18 RUE DE L'INDE -LES JARDINS","latitude":"36.811464"},{"longitude":"10.18236","registeredVoters":"597","signingVoters":"454","center_name":"E.P.18 RUE DE L'INDE -LES JARDINS","latitude":"36.811464"},{"longitude":"10.18236","registeredVoters":"597","signingVoters":"443","center_name":"E.P.18 RUE DE L'INDE -LES JARDINS","latitude":"36.811464"},{"longitude":"10.18236","registeredVoters":"593","signingVoters":"434","center_name":"E.P.18 RUE DE L'INDE -LES JARDINS","latitude":"36.811464"},{"longitude":"10.181684","registeredVoters":"598","signingVoters":"498","center_name":"E.P.29 RUE DE MARSEILLE","latitude":"36.803462"},{"longitude":"10.181684","registeredVoters":"598","signingVoters":"483","center_name":"E.P.29 RUE DE MARSEILLE","latitude":"36.803462"},{"longitude":"10.181684","registeredVoters":"598","signingVoters":"469","center_name":"E.P.29 RUE DE MARSEILLE","latitude":"36.803462"},{"longitude":"10.181684","registeredVoters":"598","signingVoters":"468","center_name":"E.P.29 RUE DE MARSEILLE","latitude":"36.803462"},{"longitude":"10.181684","registeredVoters":"598","signingVoters":"469","center_name":"E.P.29 RUE DE MARSEILLE","latitude":"36.803462"},{"longitude":"10.181684","registeredVoters":"598","signingVoters":"456","center_name":"E.P.29 RUE DE MARSEILLE","latitude":"36.803462"},{"longitude":"10.181684","registeredVoters":"598","signingVoters":"411","center_name":"E.P.29 RUE DE MARSEILLE","latitude":"36.803462"},{"longitude":"10.181684","registeredVoters":"598","signingVoters":"387","center_name":"E.P.29 RUE DE MARSEILLE","latitude":"36.803462"},{"longitude":"10.181684","registeredVoters":"596","signingVoters":"364","center_name":"E.P.29 RUE DE MARSEILLE","latitude":"36.803462"},{"longitude":"10.17304701","registeredVoters":"558","signingVoters":"445","center_name":"E.P.3 RUE KELIBIA -BAB KHADRA","latitude":"36.81141002"},{"longitude":"10.17304701","registeredVoters":"558","signingVoters":"448","center_name":"E.P.3 RUE KELIBIA -BAB KHADRA","latitude":"36.81141002"},{"longitude":"10.17304701","registeredVoters":"558","signingVoters":"435","center_name":"E.P.3 RUE KELIBIA -BAB KHADRA","latitude":"36.81141002"},{"longitude":"10.17304701","registeredVoters":"558","signingVoters":"384","center_name":"E.P.3 RUE KELIBIA -BAB KHADRA","latitude":"36.81141002"},{"longitude":"10.17304701","registeredVoters":"558","signingVoters":"424","center_name":"E.P.3 RUE KELIBIA -BAB KHADRA","latitude":"36.81141002"},{"longitude":"10.17304701","registeredVoters":"558","signingVoters":"405","center_name":"E.P.3 RUE KELIBIA -BAB KHADRA","latitude":"36.81141002"},{"longitude":"10.17304701","registeredVoters":"558","signingVoters":"358","center_name":"E.P.3 RUE KELIBIA -BAB KHADRA","latitude":"36.81141002"},{"longitude":"10.17304701","registeredVoters":"556","signingVoters":"311","center_name":"E.P.3 RUE KELIBIA -BAB KHADRA","latitude":"36.81141002"},{"longitude":"10.163182","registeredVoters":"563","signingVoters":"408","center_name":"E.P.RUE DES ARCS BEB SAADOUN","latitude":"36.806136"},{"longitude":"10.163182","registeredVoters":"563","signingVoters":"415","center_name":"E.P.RUE DES ARCS BEB SAADOUN","latitude":"36.806136"},{"longitude":"10.163182","registeredVoters":"563","signingVoters":"408","center_name":"E.P.RUE DES ARCS BEB SAADOUN","latitude":"36.806136"},{"longitude":"10.163182","registeredVoters":"563","signingVoters":"398","center_name":"E.P.RUE DES ARCS BEB SAADOUN","latitude":"36.806136"},{"longitude":"10.163182","registeredVoters":"563","signingVoters":"373","center_name":"E.P.RUE DES ARCS BEB SAADOUN","latitude":"36.806136"},{"longitude":"10.163182","registeredVoters":"563","signingVoters":"364","center_name":"E.P.RUE DES ARCS BEB SAADOUN","latitude":"36.806136"},{"longitude":"10.163182","registeredVoters":"562","signingVoters":"298","center_name":"E.P.RUE DES ARCS BEB SAADOUN","latitude":"36.806136"},{"longitude":"10.16497578","registeredVoters":"530","signingVoters":"429","center_name":"E.P.SIDI ALOUI -EL HALFAOUINE","latitude":"36.80778845"},{"longitude":"10.16497578","registeredVoters":"530","signingVoters":"432","center_name":"E.P.SIDI ALOUI -EL HALFAOUINE","latitude":"36.80778845"},{"longitude":"10.16497578","registeredVoters":"530","signingVoters":"421","center_name":"E.P.SIDI ALOUI -EL HALFAOUINE","latitude":"36.80778845"},{"longitude":"10.16497578","registeredVoters":"530","signingVoters":"420","center_name":"E.P.SIDI ALOUI -EL HALFAOUINE","latitude":"36.80778845"},{"longitude":"10.16497578","registeredVoters":"530","signingVoters":"411","center_name":"E.P.SIDI ALOUI -EL HALFAOUINE","latitude":"36.80778845"},{"longitude":"10.16497578","registeredVoters":"530","signingVoters":"384","center_name":"E.P.SIDI ALOUI -EL HALFAOUINE","latitude":"36.80778845"},{"longitude":"10.16497578","registeredVoters":"530","signingVoters":"367","center_name":"E.P.SIDI ALOUI -EL HALFAOUINE","latitude":"36.80778845"},{"longitude":"10.16497578","registeredVoters":"525","signingVoters":"359","center_name":"E.P.SIDI ALOUI -EL HALFAOUINE","latitude":"36.80778845"},{"longitude":"10.17032454","registeredVoters":"591","signingVoters":"472","center_name":"E.P.55 RUE BAB SOUIKA","latitude":"36.80547818"},{"longitude":"10.17032454","registeredVoters":"591","signingVoters":"496","center_name":"E.P.55 RUE BAB SOUIKA","latitude":"36.80547818"},{"longitude":"10.17032454","registeredVoters":"591","signingVoters":"477","center_name":"E.P.55 RUE BAB SOUIKA","latitude":"36.80547818"},{"longitude":"10.17032454","registeredVoters":"591","signingVoters":"464","center_name":"E.P.55 RUE BAB SOUIKA","latitude":"36.80547818"},{"longitude":"10.17032454","registeredVoters":"591","signingVoters":"472","center_name":"E.P.55 RUE BAB SOUIKA","latitude":"36.80547818"},{"longitude":"10.17032454","registeredVoters":"591","signingVoters":"436","center_name":"E.P.55 RUE BAB SOUIKA","latitude":"36.80547818"},{"longitude":"10.17032454","registeredVoters":"591","signingVoters":"432","center_name":"E.P.55 RUE BAB SOUIKA","latitude":"36.80547818"},{"longitude":"10.17032454","registeredVoters":"591","signingVoters":"388","center_name":"E.P.55 RUE BAB SOUIKA","latitude":"36.80547818"},{"longitude":"10.21179","registeredVoters":"406","signingVoters":"318","center_name":"E.P. C. THAMER JBEL JLOUD -SIDIFATHALLAH","latitude":"36.759691"},{"longitude":"10.21179","registeredVoters":"406","signingVoters":"302","center_name":"E.P. C. THAMER JBEL JLOUD -SIDIFATHALLAH","latitude":"36.759691"},{"longitude":"10.21179","registeredVoters":"406","signingVoters":"271","center_name":"E.P. C. THAMER JBEL JLOUD -SIDIFATHALLAH","latitude":"36.759691"},{"longitude":"10.20398","registeredVoters":"493","signingVoters":"381","center_name":"E.P.RUE H-LIF J JELOUD","latitude":"36.764689"},{"longitude":"10.20398","registeredVoters":"493","signingVoters":"362","center_name":"E.P.RUE H-LIF J JELOUD","latitude":"36.764689"},{"longitude":"10.20398","registeredVoters":"493","signingVoters":"359","center_name":"E.P.RUE H-LIF J JELOUD","latitude":"36.764689"},{"longitude":"10.20398","registeredVoters":"492","signingVoters":"299","center_name":"E.P.RUE H-LIF J JELOUD","latitude":"36.764689"},{"longitude":"10.197978","registeredVoters":"513","signingVoters":"378","center_name":"E.P. R. PHILIPE VILLE JBELJLOUD -B.HAMBA","latitude":"36.770115"},{"longitude":"10.197978","registeredVoters":"513","signingVoters":"367","center_name":"E.P. R. PHILIPE VILLE JBELJLOUD -B.HAMBA","latitude":"36.770115"},{"longitude":"10.197978","registeredVoters":"513","signingVoters":"327","center_name":"E.P. R. PHILIPE VILLE JBELJLOUD -B.HAMBA","latitude":"36.770115"},{"longitude":"10.195197","registeredVoters":"548","signingVoters":"423","center_name":"E.P.ROUTE LACAGNA JBEL JLOUD -ELGARJOUMA","latitude":"36.766994"},{"longitude":"10.195197","registeredVoters":"548","signingVoters":"417","center_name":"E.P.ROUTE LACAGNA JBEL JLOUD -ELGARJOUMA","latitude":"36.766994"},{"longitude":"10.204458","registeredVoters":"574","signingVoters":"445","center_name":"E.P.SIDI FATHALLAH 1 -CITE ELFATEH","latitude":"36.764706"},{"longitude":"10.204458","registeredVoters":"574","signingVoters":"432","center_name":"E.P.SIDI FATHALLAH 1 -CITE ELFATEH","latitude":"36.764706"},{"longitude":"10.204458","registeredVoters":"574","signingVoters":"435","center_name":"E.P.SIDI FATHALLAH 1 -CITE ELFATEH","latitude":"36.764706"},{"longitude":"10.204458","registeredVoters":"574","signingVoters":"415","center_name":"E.P.SIDI FATHALLAH 1 -CITE ELFATEH","latitude":"36.764706"},{"longitude":"10.204458","registeredVoters":"574","signingVoters":"398","center_name":"E.P.SIDI FATHALLAH 1 -CITE ELFATEH","latitude":"36.764706"},{"longitude":"10.204458","registeredVoters":"574","signingVoters":"350","center_name":"E.P.SIDI FATHALLAH 1 -CITE ELFATEH","latitude":"36.764706"},{"longitude":"10.204458","registeredVoters":"570","signingVoters":"356","center_name":"E.P.SIDI FATHALLAH 1 -CITE ELFATEH","latitude":"36.764706"},{"longitude":"10.204453","registeredVoters":"487","signingVoters":"362","center_name":"E.P.SIDIFATHALLA2 JBEL JLOUD -C. ELFATEH","latitude":"36.765087"},{"longitude":"10.204453","registeredVoters":"486","signingVoters":"340","center_name":"E.P.SIDIFATHALLA2 JBEL JLOUD -C. ELFATEH","latitude":"36.765087"},{"longitude":"10.204453","registeredVoters":"468","signingVoters":"278","center_name":"E.P.SIDIFATHALLA2 JBEL JLOUD -C. ELFATEH","latitude":"36.765087"},{"longitude":"10.175293","registeredVoters":"575","signingVoters":"447","center_name":"E.P. R. KARABAKA MONFLEURI -FARHATHACHED","latitude":"36.783645"},{"longitude":"10.175293","registeredVoters":"575","signingVoters":"418","center_name":"E.P. R. KARABAKA MONFLEURI -FARHATHACHED","latitude":"36.783645"},{"longitude":"10.17423","registeredVoters":"568","signingVoters":"425","center_name":"E.P.RUE DU SAHEL  -FARHAT HACHED","latitude":"36.782731"},{"longitude":"10.17423","registeredVoters":"568","signingVoters":"440","center_name":"E.P.RUE DU SAHEL  -FARHAT HACHED","latitude":"36.782731"},{"longitude":"10.17423","registeredVoters":"568","signingVoters":"412","center_name":"E.P.RUE DU SAHEL  -FARHAT HACHED","latitude":"36.782731"},{"longitude":"10.17423","registeredVoters":"568","signingVoters":"397","center_name":"E.P.RUE DU SAHEL  -FARHAT HACHED","latitude":"36.782731"},{"longitude":"10.17423","registeredVoters":"568","signingVoters":"433","center_name":"E.P.RUE DU SAHEL  -FARHAT HACHED","latitude":"36.782731"},{"longitude":"10.17423","registeredVoters":"564","signingVoters":"403","center_name":"E.P.RUE DU SAHEL  -FARHAT HACHED","latitude":"36.782731"},{"longitude":"10.17692368","registeredVoters":"512","signingVoters":"434","center_name":"E.P.RUE ALI DOUAGI MONTFLEURI -A. CHEBBI","latitude":"36.78437917"},{"longitude":"10.17692368","registeredVoters":"512","signingVoters":"393","center_name":"E.P.RUE ALI DOUAGI MONTFLEURI -A. CHEBBI","latitude":"36.78437917"},{"longitude":"10.172931","registeredVoters":"555","signingVoters":"465","center_name":"E.P.APP.RUE DES SAVANTS ABOUKACEM CHEBBI","latitude":"36.789672"},{"longitude":"10.172931","registeredVoters":"555","signingVoters":"465","center_name":"E.P.APP.RUE DES SAVANTS ABOUKACEM CHEBBI","latitude":"36.789672"},{"longitude":"10.172931","registeredVoters":"555","signingVoters":"455","center_name":"E.P.APP.RUE DES SAVANTS ABOUKACEM CHEBBI","latitude":"36.789672"},{"longitude":"10.172931","registeredVoters":"555","signingVoters":"421","center_name":"E.P.APP.RUE DES SAVANTS ABOUKACEM CHEBBI","latitude":"36.789672"},{"longitude":"10.172931","registeredVoters":"555","signingVoters":"450","center_name":"E.P.APP.RUE DES SAVANTS ABOUKACEM CHEBBI","latitude":"36.789672"},{"longitude":"10.172931","registeredVoters":"552","signingVoters":"410","center_name":"E.P.APP.RUE DES SAVANTS ABOUKACEM CHEBBI","latitude":"36.789672"},{"longitude":"10.168417","registeredVoters":"590","signingVoters":"408","center_name":"E.P.CITE HILAL 1 SAIDA MANOUBIA","latitude":"36.782062"},{"longitude":"10.168417","registeredVoters":"590","signingVoters":"436","center_name":"E.P.CITE HILAL 1 SAIDA MANOUBIA","latitude":"36.782062"},{"longitude":"10.168417","registeredVoters":"590","signingVoters":"402","center_name":"E.P.CITE HILAL 1 SAIDA MANOUBIA","latitude":"36.782062"},{"longitude":"10.168417","registeredVoters":"590","signingVoters":"393","center_name":"E.P.CITE HILAL 1 SAIDA MANOUBIA","latitude":"36.782062"},{"longitude":"10.168417","registeredVoters":"590","signingVoters":"384","center_name":"E.P.CITE HILAL 1 SAIDA MANOUBIA","latitude":"36.782062"},{"longitude":"10.168417","registeredVoters":"590","signingVoters":"311","center_name":"E.P.CITE HILAL 1 SAIDA MANOUBIA","latitude":"36.782062"},{"longitude":"10.168417","registeredVoters":"588","signingVoters":"359","center_name":"E.P.CITE HILAL 1 SAIDA MANOUBIA","latitude":"36.782062"},{"longitude":"10.169824","registeredVoters":"556","signingVoters":"431","center_name":"E.P.CITE HILAL 2","latitude":"36.778387"},{"longitude":"10.169824","registeredVoters":"556","signingVoters":"395","center_name":"E.P.CITE HILAL 2","latitude":"36.778387"},{"longitude":"10.169824","registeredVoters":"556","signingVoters":"374","center_name":"E.P.CITE HILAL 2","latitude":"36.778387"},{"longitude":"10.169824","registeredVoters":"554","signingVoters":"353","center_name":"E.P.CITE HILAL 2","latitude":"36.778387"},{"longitude":"10.07670802","registeredVoters":"334","signingVoters":"261","center_name":"E.P.BORJ CHAKIR","latitude":"36.76433717"},{"longitude":"10.07670802","registeredVoters":"333","signingVoters":"226","center_name":"E.P.BORJ CHAKIR","latitude":"36.76433717"},{"longitude":"10.114181","registeredVoters":"499","signingVoters":"360","center_name":"E.P.SIDI HASSINE 1","latitude":"36.768604"},{"longitude":"10.114181","registeredVoters":"499","signingVoters":"320","center_name":"E.P.SIDI HASSINE 1","latitude":"36.768604"},{"longitude":"10.114181","registeredVoters":"493","signingVoters":"277","center_name":"E.P.SIDI HASSINE 1","latitude":"36.768604"},{"longitude":"10.114181","registeredVoters":"499","signingVoters":"227","center_name":"E.P.SIDI HASSINE 1","latitude":"36.768604"},{"longitude":"10.114181","registeredVoters":"496","signingVoters":"247","center_name":"E.P.SIDI HASSINE 1","latitude":"36.768604"},{"longitude":"10.11304194","registeredVoters":"583","signingVoters":"431","center_name":"E.P.SIDI HASSINE 2","latitude":"36.77240468"},{"longitude":"10.11304194","registeredVoters":"593","signingVoters":"399","center_name":"E.P.SIDI HASSINE 2","latitude":"36.77240468"},{"longitude":"10.11304194","registeredVoters":"583","signingVoters":"394","center_name":"E.P.SIDI HASSINE 2","latitude":"36.77240468"},{"longitude":"10.11304194","registeredVoters":"583","signingVoters":"350","center_name":"E.P.SIDI HASSINE 2","latitude":"36.77240468"},{"longitude":"10.11304194","registeredVoters":"583","signingVoters":"313","center_name":"E.P.SIDI HASSINE 2","latitude":"36.77240468"},{"longitude":"10.11304194","registeredVoters":"583","signingVoters":"266","center_name":"E.P.SIDI HASSINE 2","latitude":"36.77240468"},{"longitude":"10.11304194","registeredVoters":"579","signingVoters":"349","center_name":"E.P.SIDI HASSINE 2","latitude":"36.77240468"},{"longitude":"10.11168","registeredVoters":"586","signingVoters":"389","center_name":"E.P.SIDI HASSINE 3","latitude":"36.767029"},{"longitude":"10.11168","registeredVoters":"586","signingVoters":"383","center_name":"E.P.SIDI HASSINE 3","latitude":"36.767029"},{"longitude":"10.11168","registeredVoters":"586","signingVoters":"397","center_name":"E.P.SIDI HASSINE 3","latitude":"36.767029"},{"longitude":"10.11168","registeredVoters":"586","signingVoters":"378","center_name":"E.P.SIDI HASSINE 3","latitude":"36.767029"},{"longitude":"10.11168","registeredVoters":"586","signingVoters":"308","center_name":"E.P.SIDI HASSINE 3","latitude":"36.767029"},{"longitude":"10.11168","registeredVoters":"586","signingVoters":"269","center_name":"E.P.SIDI HASSINE 3","latitude":"36.767029"},{"longitude":"10.11168","registeredVoters":"582","signingVoters":"342","center_name":"E.P.SIDI HASSINE 3","latitude":"36.767029"},{"longitude":"10.099733","registeredVoters":"526","signingVoters":"377","center_name":"E.P.ECHEBI CITE MRAD El Jaiara","latitude":"36.768448"},{"longitude":"10.099733","registeredVoters":"526","signingVoters":"372","center_name":"E.P.ECHEBI CITE MRAD El Jaiara","latitude":"36.768448"},{"longitude":"10.099733","registeredVoters":"526","signingVoters":"361","center_name":"E.P.ECHEBI CITE MRAD El Jaiara","latitude":"36.768448"},{"longitude":"10.099733","registeredVoters":"526","signingVoters":"286","center_name":"E.P.ECHEBI CITE MRAD El Jaiara","latitude":"36.768448"},{"longitude":"10.10521","registeredVoters":"519","signingVoters":"386","center_name":"E.P.CITE BOUGATFA -JAYARA","latitude":"36.776747"},{"longitude":"10.10521","registeredVoters":"519","signingVoters":"336","center_name":"E.P.CITE BOUGATFA -JAYARA","latitude":"36.776747"},{"longitude":"10.10521","registeredVoters":"519","signingVoters":"367","center_name":"E.P.CITE BOUGATFA -JAYARA","latitude":"36.776747"},{"longitude":"10.10521","registeredVoters":"519","signingVoters":"306","center_name":"E.P.CITE BOUGATFA -JAYARA","latitude":"36.776747"},{"longitude":"10.10521","registeredVoters":"519","signingVoters":"265","center_name":"E.P.CITE BOUGATFA -JAYARA","latitude":"36.776747"},{"longitude":"10.10521","registeredVoters":"519","signingVoters":"257","center_name":"E.P.CITE BOUGATFA -JAYARA","latitude":"36.776747"},{"longitude":"10.10521","registeredVoters":"513","signingVoters":"299","center_name":"E.P.CITE BOUGATFA -JAYARA","latitude":"36.776747"},{"longitude":"10.093439","registeredVoters":"528","signingVoters":"403","center_name":"E.P.EL JAYARA 1","latitude":"36.768173"},{"longitude":"10.093439","registeredVoters":"528","signingVoters":"344","center_name":"E.P.EL JAYARA 1","latitude":"36.768173"},{"longitude":"10.093439","registeredVoters":"528","signingVoters":"324","center_name":"E.P.EL JAYARA 1","latitude":"36.768173"},{"longitude":"10.088395","registeredVoters":"553","signingVoters":"404","center_name":"E.P.EL JAYARA 2","latitude":"36.767754"},{"longitude":"10.088395","registeredVoters":"552","signingVoters":"350","center_name":"E.P.EL JAYARA 2","latitude":"36.767754"},{"longitude":"10.068868","registeredVoters":"362","signingVoters":"202","center_name":"E.P.ATTAR","latitude":"36.732479"},{"longitude":"10.112074","registeredVoters":"557","signingVoters":"413","center_name":"E.P.EL FATH","latitude":"36.761596"},{"longitude":"10.112074","registeredVoters":"557","signingVoters":"401","center_name":"E.P.EL FATH","latitude":"36.761596"},{"longitude":"10.112074","registeredVoters":"557","signingVoters":"334","center_name":"E.P.EL FATH","latitude":"36.761596"},{"longitude":"10.112074","registeredVoters":"555","signingVoters":"306","center_name":"E.P.EL FATH","latitude":"36.761596"},{"longitude":"10.117184","registeredVoters":"590","signingVoters":"440","center_name":"E.P.SEJOUMI -20 MARS","latitude":"36.754737"},{"longitude":"10.117184","registeredVoters":"589","signingVoters":"353","center_name":"E.P.SEJOUMI -20 MARS","latitude":"36.754737"},{"longitude":"10.11072482","registeredVoters":"523","signingVoters":"416","center_name":"E.P.CITE 20 MARS SIJOUMI","latitude":"36.75273262"},{"longitude":"10.11072482","registeredVoters":"523","signingVoters":"418","center_name":"E.P.CITE 20 MARS SIJOUMI","latitude":"36.75273262"},{"longitude":"10.11072482","registeredVoters":"523","signingVoters":"403","center_name":"E.P.CITE 20 MARS SIJOUMI","latitude":"36.75273262"},{"longitude":"10.11072482","registeredVoters":"523","signingVoters":"373","center_name":"E.P.CITE 20 MARS SIJOUMI","latitude":"36.75273262"},{"longitude":"10.11072482","registeredVoters":"523","signingVoters":"333","center_name":"E.P.CITE 20 MARS SIJOUMI","latitude":"36.75273262"},{"longitude":"10.11072482","registeredVoters":"523","signingVoters":"319","center_name":"E.P.CITE 20 MARS SIJOUMI","latitude":"36.75273262"},{"longitude":"10.11072482","registeredVoters":"520","signingVoters":"363","center_name":"E.P.CITE 20 MARS SIJOUMI","latitude":"36.75273262"},{"longitude":"10.107401","registeredVoters":"531","signingVoters":"415","center_name":"E.P.BIRINE","latitude":"36.717791"},{"longitude":"10.107401","registeredVoters":"531","signingVoters":"385","center_name":"E.P.BIRINE","latitude":"36.717791"},{"longitude":"10.107401","registeredVoters":"531","signingVoters":"329","center_name":"E.P.BIRINE","latitude":"36.717791"},{"longitude":"10.107401","registeredVoters":"530","signingVoters":"332","center_name":"E.P.BIRINE","latitude":"36.717791"},{"longitude":"10.13410167","registeredVoters":"534","signingVoters":"335","center_name":"E.P.MGHIRA ENZEL","latitude":"36.71110604"},{"longitude":"10.123266","registeredVoters":"570","signingVoters":"391","center_name":"E.P.ABDALLAH ELMAYOU MGHIRA","latitude":"36.730821"},{"longitude":"10.123266","registeredVoters":"570","signingVoters":"331","center_name":"E.P.ABDALLAH ELMAYOU MGHIRA","latitude":"36.730821"},{"longitude":"10.119402","registeredVoters":"501","signingVoters":"383","center_name":"E.P.SIDI HASSINE 4 -MGHIRA ENZEL","latitude":"36.744448"},{"longitude":"10.119402","registeredVoters":"501","signingVoters":"358","center_name":"E.P.SIDI HASSINE 4 -MGHIRA ENZEL","latitude":"36.744448"},{"longitude":"10.119402","registeredVoters":"501","signingVoters":"327","center_name":"E.P.SIDI HASSINE 4 -MGHIRA ENZEL","latitude":"36.744448"},{"longitude":"10.14280051","registeredVoters":"248","signingVoters":"177","center_name":"E.P.CITE EL MONGI SLIM MGHIRA ENZEL","latitude":"36.7102938"},{"longitude":"10.127258","registeredVoters":"493","signingVoters":"333","center_name":"E.P.OMAR EL MOKHTAR -25 JUILLET","latitude":"36.731851"},{"longitude":"10.127258","registeredVoters":"493","signingVoters":"324","center_name":"E.P.OMAR EL MOKHTAR -25 JUILLET","latitude":"36.731851"},{"longitude":"10.127258","registeredVoters":"491","signingVoters":"261","center_name":"E.P.OMAR EL MOKHTAR -25 JUILLET","latitude":"36.731851"},{"longitude":"10.126603","registeredVoters":"578","signingVoters":"473","center_name":"E.P.ETTAHRIR 1 -ETTAHRIR 1","latitude":"36.823941"},{"longitude":"10.126603","registeredVoters":"578","signingVoters":"441","center_name":"E.P.ETTAHRIR 1 -ETTAHRIR 1","latitude":"36.823941"},{"longitude":"10.126603","registeredVoters":"578","signingVoters":"464","center_name":"E.P.ETTAHRIR 1 -ETTAHRIR 1","latitude":"36.823941"},{"longitude":"10.126603","registeredVoters":"578","signingVoters":"463","center_name":"E.P.ETTAHRIR 1 -ETTAHRIR 1","latitude":"36.823941"},{"longitude":"10.126603","registeredVoters":"578","signingVoters":"441","center_name":"E.P.ETTAHRIR 1 -ETTAHRIR 1","latitude":"36.823941"},{"longitude":"10.126603","registeredVoters":"578","signingVoters":"392","center_name":"E.P.ETTAHRIR 1 -ETTAHRIR 1","latitude":"36.823941"},{"longitude":"10.126603","registeredVoters":"578","signingVoters":"419","center_name":"E.P.ETTAHRIR 1 -ETTAHRIR 1","latitude":"36.823941"},{"longitude":"10.126603","registeredVoters":"576","signingVoters":"433","center_name":"E.P.ETTAHRIR 1 -ETTAHRIR 1","latitude":"36.823941"},{"longitude":"10.125575","registeredVoters":"554","signingVoters":"448","center_name":"E.P.CITE ETTAHRIR 2 -ETTAHRIR 1","latitude":"36.824321"},{"longitude":"10.125575","registeredVoters":"554","signingVoters":"451","center_name":"E.P.CITE ETTAHRIR 2 -ETTAHRIR 1","latitude":"36.824321"},{"longitude":"10.125575","registeredVoters":"554","signingVoters":"443","center_name":"E.P.CITE ETTAHRIR 2 -ETTAHRIR 1","latitude":"36.824321"},{"longitude":"10.125575","registeredVoters":"554","signingVoters":"425","center_name":"E.P.CITE ETTAHRIR 2 -ETTAHRIR 1","latitude":"36.824321"},{"longitude":"10.125575","registeredVoters":"554","signingVoters":"401","center_name":"E.P.CITE ETTAHRIR 2 -ETTAHRIR 1","latitude":"36.824321"},{"longitude":"10.125575","registeredVoters":"551","signingVoters":"391","center_name":"E.P.CITE ETTAHRIR 2 -ETTAHRIR 1","latitude":"36.824321"},{"longitude":"10.127022","registeredVoters":"478","signingVoters":"395","center_name":"E.P.CITE ETTAHRIR 3 -ETTAHRIR 3","latitude":"36.827795"},{"longitude":"10.127022","registeredVoters":"478","signingVoters":"398","center_name":"E.P.CITE ETTAHRIR 3 -ETTAHRIR 3","latitude":"36.827795"},{"longitude":"10.127022","registeredVoters":"478","signingVoters":"390","center_name":"E.P.CITE ETTAHRIR 3 -ETTAHRIR 3","latitude":"36.827795"},{"longitude":"10.127022","registeredVoters":"475","signingVoters":"370","center_name":"E.P.CITE ETTAHRIR 3 -ETTAHRIR 3","latitude":"36.827795"},{"longitude":"10.120726","registeredVoters":"486","signingVoters":"395","center_name":"E.P.ETTAHRIR SUPERIEUR","latitude":"36.835476"},{"longitude":"10.120726","registeredVoters":"486","signingVoters":"380","center_name":"E.P.ETTAHRIR SUPERIEUR","latitude":"36.835476"},{"longitude":"10.120726","registeredVoters":"486","signingVoters":"367","center_name":"E.P.ETTAHRIR SUPERIEUR","latitude":"36.835476"},{"longitude":"10.120726","registeredVoters":"486","signingVoters":"329","center_name":"E.P.ETTAHRIR SUPERIEUR","latitude":"36.835476"},{"longitude":"10.120726","registeredVoters":"486","signingVoters":"325","center_name":"E.P.ETTAHRIR SUPERIEUR","latitude":"36.835476"},{"longitude":"10.165967","registeredVoters":"565","signingVoters":"495","center_name":"E.P.16 RUE BICHARA EL KHOURI -OMRANE","latitude":"36.814544"},{"longitude":"10.165967","registeredVoters":"565","signingVoters":"484","center_name":"E.P.16 RUE BICHARA EL KHOURI -OMRANE","latitude":"36.814544"},{"longitude":"10.165967","registeredVoters":"565","signingVoters":"446","center_name":"E.P.16 RUE BICHARA EL KHOURI -OMRANE","latitude":"36.814544"},{"longitude":"10.165967","registeredVoters":"565","signingVoters":"454","center_name":"E.P.16 RUE BICHARA EL KHOURI -OMRANE","latitude":"36.814544"},{"longitude":"10.155486","registeredVoters":"506","signingVoters":"417","center_name":"E.P.RUE POLOGNE -OMRANE","latitude":"36.810963"},{"longitude":"10.155486","registeredVoters":"506","signingVoters":"408","center_name":"E.P.RUE POLOGNE -OMRANE","latitude":"36.810963"},{"longitude":"10.155486","registeredVoters":"506","signingVoters":"376","center_name":"E.P.RUE POLOGNE -OMRANE","latitude":"36.810963"},{"longitude":"10.158872","registeredVoters":"493","signingVoters":"376","center_name":"E.P.BIR KRAM JBEL LAHMER -C.DES OLIVIERS","latitude":"36.818221"},{"longitude":"10.158872","registeredVoters":"493","signingVoters":"348","center_name":"E.P.BIR KRAM JBEL LAHMER -C.DES OLIVIERS","latitude":"36.818221"},{"longitude":"10.158872","registeredVoters":"493","signingVoters":"349","center_name":"E.P.BIR KRAM JBEL LAHMER -C.DES OLIVIERS","latitude":"36.818221"},{"longitude":"10.158872","registeredVoters":"493","signingVoters":"336","center_name":"E.P.BIR KRAM JBEL LAHMER -C.DES OLIVIERS","latitude":"36.818221"},{"longitude":"10.158872","registeredVoters":"491","signingVoters":"291","center_name":"E.P.BIR KRAM JBEL LAHMER -C.DES OLIVIERS","latitude":"36.818221"},{"longitude":"10.158435","registeredVoters":"548","signingVoters":"392","center_name":"E.P.CITE DES OLIVIERS 1","latitude":"36.819811"},{"longitude":"10.158435","registeredVoters":"548","signingVoters":"390","center_name":"E.P.CITE DES OLIVIERS 1","latitude":"36.819811"},{"longitude":"10.158435","registeredVoters":"548","signingVoters":"383","center_name":"E.P.CITE DES OLIVIERS 1","latitude":"36.819811"},{"longitude":"10.158435","registeredVoters":"548","signingVoters":"362","center_name":"E.P.CITE DES OLIVIERS 1","latitude":"36.819811"},{"longitude":"10.158435","registeredVoters":"545","signingVoters":"338","center_name":"E.P.CITE DES OLIVIERS 1","latitude":"36.819811"},{"longitude":"10.158287","registeredVoters":"414","signingVoters":"281","center_name":"E.P.CITE DES OLIVIERS 2","latitude":"36.819719"},{"longitude":"10.158287","registeredVoters":"413","signingVoters":"253","center_name":"E.P.CITE DES OLIVIERS 2","latitude":"36.819719"},{"longitude":"10.142721","registeredVoters":"575","signingVoters":"454","center_name":"E.P.RAS ETTABIA RUE DE FESS","latitude":"36.820129"},{"longitude":"10.142721","registeredVoters":"575","signingVoters":"457","center_name":"E.P.RAS ETTABIA RUE DE FESS","latitude":"36.820129"},{"longitude":"10.142721","registeredVoters":"574","signingVoters":"401","center_name":"E.P.RAS ETTABIA RUE DE FESS","latitude":"36.820129"},{"longitude":"10.144809","registeredVoters":"488","signingVoters":"428","center_name":"E.P.CITE ERROMANA -RASS TABIA","latitude":"36.822771"},{"longitude":"10.144809","registeredVoters":"488","signingVoters":"411","center_name":"E.P.CITE ERROMANA -RASS TABIA","latitude":"36.822771"},{"longitude":"10.144809","registeredVoters":"600","signingVoters":"358","center_name":"E.P.CITE ERROMANA -RASS TABIA","latitude":"36.822771"},{"longitude":"10.155509","registeredVoters":"599","signingVoters":"463","center_name":"E.P.BIR ATIG -JBEL LAHMER","latitude":"36.819647"},{"longitude":"10.155509","registeredVoters":"599","signingVoters":"417","center_name":"E.P.BIR ATIG -JBEL LAHMER","latitude":"36.819647"},{"longitude":"10.155509","registeredVoters":"599","signingVoters":"424","center_name":"E.P.BIR ATIG -JBEL LAHMER","latitude":"36.819647"},{"longitude":"10.155509","registeredVoters":"598","signingVoters":"382","center_name":"E.P.BIR ATIG -JBEL LAHMER","latitude":"36.819647"},{"longitude":"10.164232","registeredVoters":"434","signingVoters":"312","center_name":"E.P.EL FAOUEZ OMRANE -OUED SEBII","latitude":"36.822005"},{"longitude":"10.164232","registeredVoters":"434","signingVoters":"316","center_name":"E.P.EL FAOUEZ OMRANE -OUED SEBII","latitude":"36.822005"},{"longitude":"10.164232","registeredVoters":"432","signingVoters":"285","center_name":"E.P.EL FAOUEZ OMRANE -OUED SEBII","latitude":"36.822005"},{"longitude":"10.164763","registeredVoters":"432","signingVoters":"325","center_name":"E.P.2 MARS 34 EL OMRANE","latitude":"36.820435"},{"longitude":"10.164763","registeredVoters":"432","signingVoters":"340","center_name":"E.P.2 MARS 34 EL OMRANE","latitude":"36.820435"},{"longitude":"10.164763","registeredVoters":"430","signingVoters":"275","center_name":"E.P.2 MARS 34 EL OMRANE","latitude":"36.820435"},{"longitude":"10.138052","registeredVoters":"548","signingVoters":"470","center_name":"E.P.CITE IBN KHALDOUN 2 -ROMANA","latitude":"36.823595"},{"longitude":"10.138052","registeredVoters":"548","signingVoters":"450","center_name":"E.P.CITE IBN KHALDOUN 2 -ROMANA","latitude":"36.823595"},{"longitude":"10.138052","registeredVoters":"548","signingVoters":"441","center_name":"E.P.CITE IBN KHALDOUN 2 -ROMANA","latitude":"36.823595"},{"longitude":"10.138052","registeredVoters":"548","signingVoters":"432","center_name":"E.P.CITE IBN KHALDOUN 2 -ROMANA","latitude":"36.823595"},{"longitude":"10.138052","registeredVoters":"548","signingVoters":"434","center_name":"E.P.CITE IBN KHALDOUN 2 -ROMANA","latitude":"36.823595"},{"longitude":"10.138052","registeredVoters":"548","signingVoters":"395","center_name":"E.P.CITE IBN KHALDOUN 2 -ROMANA","latitude":"36.823595"},{"longitude":"10.138052","registeredVoters":"548","signingVoters":"376","center_name":"E.P.CITE IBN KHALDOUN 2 -ROMANA","latitude":"36.823595"},{"longitude":"10.138052","registeredVoters":"546","signingVoters":"400","center_name":"E.P.CITE IBN KHALDOUN 2 -ROMANA","latitude":"36.823595"},{"longitude":"10.140082","registeredVoters":"583","signingVoters":"461","center_name":"E.P.CITE IBN KHALDOUN 3","latitude":"36.830634"},{"longitude":"10.140082","registeredVoters":"583","signingVoters":"434","center_name":"E.P.CITE IBN KHALDOUN 3","latitude":"36.830634"},{"longitude":"10.140082","registeredVoters":"583","signingVoters":"440","center_name":"E.P.CITE IBN KHALDOUN 3","latitude":"36.830634"},{"longitude":"10.140082","registeredVoters":"583","signingVoters":"451","center_name":"E.P.CITE IBN KHALDOUN 3","latitude":"36.830634"},{"longitude":"10.140082","registeredVoters":"583","signingVoters":"419","center_name":"E.P.CITE IBN KHALDOUN 3","latitude":"36.830634"},{"longitude":"10.140082","registeredVoters":"583","signingVoters":"395","center_name":"E.P.CITE IBN KHALDOUN 3","latitude":"36.830634"},{"longitude":"10.140082","registeredVoters":"577","signingVoters":"368","center_name":"E.P.CITE IBN KHALDOUN 3","latitude":"36.830634"},{"longitude":"10.129406","registeredVoters":"527","signingVoters":"422","center_name":"E.P.CITE IBN KHALDOUN 6 -IBN KHALDOUN6","latitude":"36.835616"},{"longitude":"10.129406","registeredVoters":"527","signingVoters":"409","center_name":"E.P.CITE IBN KHALDOUN 6 -IBN KHALDOUN6","latitude":"36.835616"},{"longitude":"10.129406","registeredVoters":"527","signingVoters":"409","center_name":"E.P.CITE IBN KHALDOUN 6 -IBN KHALDOUN6","latitude":"36.835616"},{"longitude":"10.129406","registeredVoters":"527","signingVoters":"372","center_name":"E.P.CITE IBN KHALDOUN 6 -IBN KHALDOUN6","latitude":"36.835616"},{"longitude":"10.129406","registeredVoters":"527","signingVoters":"358","center_name":"E.P.CITE IBN KHALDOUN 6 -IBN KHALDOUN6","latitude":"36.835616"},{"longitude":"10.129406","registeredVoters":"527","signingVoters":"347","center_name":"E.P.CITE IBN KHALDOUN 6 -IBN KHALDOUN6","latitude":"36.835616"},{"longitude":"10.129406","registeredVoters":"521","signingVoters":"340","center_name":"E.P.CITE IBN KHALDOUN 6 -IBN KHALDOUN6","latitude":"36.835616"},{"longitude":"10.126966","registeredVoters":"542","signingVoters":"438","center_name":"E.P.CITE EL INTILAKA 3 -CITE EL INTILAKA","latitude":"36.8411"},{"longitude":"10.126966","registeredVoters":"542","signingVoters":"446","center_name":"E.P.CITE EL INTILAKA 3 -CITE EL INTILAKA","latitude":"36.8411"},{"longitude":"10.126966","registeredVoters":"542","signingVoters":"398","center_name":"E.P.CITE EL INTILAKA 3 -CITE EL INTILAKA","latitude":"36.8411"},{"longitude":"10.126966","registeredVoters":"542","signingVoters":"342","center_name":"E.P.CITE EL INTILAKA 3 -CITE EL INTILAKA","latitude":"36.8411"},{"longitude":"10.126966","registeredVoters":"539","signingVoters":"387","center_name":"E.P.CITE EL INTILAKA 3 -CITE EL INTILAKA","latitude":"36.8411"},{"longitude":"10.11963","registeredVoters":"543","signingVoters":"419","center_name":"E.P.CITE  INTILAKA 1 -CITE EL INTILAKA","latitude":"36.839934"},{"longitude":"10.11963","registeredVoters":"543","signingVoters":"428","center_name":"E.P.CITE  INTILAKA 1 -CITE EL INTILAKA","latitude":"36.839934"},{"longitude":"10.11963","registeredVoters":"543","signingVoters":"402","center_name":"E.P.CITE  INTILAKA 1 -CITE EL INTILAKA","latitude":"36.839934"},{"longitude":"10.11963","registeredVoters":"543","signingVoters":"369","center_name":"E.P.CITE  INTILAKA 1 -CITE EL INTILAKA","latitude":"36.839934"},{"longitude":"10.11963","registeredVoters":"543","signingVoters":"379","center_name":"E.P.CITE  INTILAKA 1 -CITE EL INTILAKA","latitude":"36.839934"},{"longitude":"10.11963","registeredVoters":"543","signingVoters":"311","center_name":"E.P.CITE  INTILAKA 1 -CITE EL INTILAKA","latitude":"36.839934"},{"longitude":"10.11963","registeredVoters":"543","signingVoters":"376","center_name":"E.P.CITE  INTILAKA 1 -CITE EL INTILAKA","latitude":"36.839934"},{"longitude":"10.11963","registeredVoters":"540","signingVoters":"355","center_name":"E.P.CITE  INTILAKA 1 -CITE EL INTILAKA","latitude":"36.839934"},{"longitude":"10.131752","registeredVoters":"532","signingVoters":"456","center_name":"E.P.IBN ARAFA","latitude":"36.837493"},{"longitude":"10.131752","registeredVoters":"532","signingVoters":"440","center_name":"E.P.IBN ARAFA","latitude":"36.837493"},{"longitude":"10.131752","registeredVoters":"532","signingVoters":"447","center_name":"E.P.IBN ARAFA","latitude":"36.837493"},{"longitude":"10.131752","registeredVoters":"532","signingVoters":"431","center_name":"E.P.IBN ARAFA","latitude":"36.837493"},{"longitude":"10.131752","registeredVoters":"532","signingVoters":"353","center_name":"E.P.IBN ARAFA","latitude":"36.837493"},{"longitude":"10.131752","registeredVoters":"532","signingVoters":"360","center_name":"E.P.IBN ARAFA","latitude":"36.837493"},{"longitude":"10.131752","registeredVoters":"532","signingVoters":"385","center_name":"E.P.IBN ARAFA","latitude":"36.837493"},{"longitude":"10.131752","registeredVoters":"531","signingVoters":"342","center_name":"E.P.IBN ARAFA","latitude":"36.837493"},{"longitude":"10.130297","registeredVoters":"578","signingVoters":"463","center_name":"E.P.ECHEBBI - OMRAN SUP","latitude":"36.840324"},{"longitude":"10.130297","registeredVoters":"578","signingVoters":"449","center_name":"E.P.ECHEBBI - OMRAN SUP","latitude":"36.840324"},{"longitude":"10.130297","registeredVoters":"578","signingVoters":"407","center_name":"E.P.ECHEBBI - OMRAN SUP","latitude":"36.840324"},{"longitude":"10.130297","registeredVoters":"578","signingVoters":"399","center_name":"E.P.ECHEBBI - OMRAN SUP","latitude":"36.840324"},{"longitude":"10.130297","registeredVoters":"578","signingVoters":"338","center_name":"E.P.ECHEBBI - OMRAN SUP","latitude":"36.840324"},{"longitude":"10.130297","registeredVoters":"578","signingVoters":"360","center_name":"E.P.ECHEBBI - OMRAN SUP","latitude":"36.840324"},{"longitude":"10.130297","registeredVoters":"573","signingVoters":"363","center_name":"E.P.ECHEBBI - OMRAN SUP","latitude":"36.840324"},{"longitude":"10.129491","registeredVoters":"457","signingVoters":"316","center_name":"E.P.CITE IBN KHALDOUN 5 -SEDDIK","latitude":"36.832417"},{"longitude":"10.129491","registeredVoters":"457","signingVoters":"331","center_name":"E.P.CITE IBN KHALDOUN 5 -SEDDIK","latitude":"36.832417"},{"longitude":"10.129491","registeredVoters":"455","signingVoters":"266","center_name":"E.P.CITE IBN KHALDOUN 5 -SEDDIK","latitude":"36.832417"},{"longitude":"10.317284","registeredVoters":"567","signingVoters":"458","center_name":"E.P.RUE BOUCHOUCHA KRAM KRAM EST","latitude":"36.831541"},{"longitude":"10.317284","registeredVoters":"567","signingVoters":"468","center_name":"E.P.RUE BOUCHOUCHA KRAM KRAM EST","latitude":"36.831541"},{"longitude":"10.317284","registeredVoters":"567","signingVoters":"461","center_name":"E.P.RUE BOUCHOUCHA KRAM KRAM EST","latitude":"36.831541"},{"longitude":"10.317284","registeredVoters":"567","signingVoters":"455","center_name":"E.P.RUE BOUCHOUCHA KRAM KRAM EST","latitude":"36.831541"},{"longitude":"10.317284","registeredVoters":"567","signingVoters":"431","center_name":"E.P.RUE BOUCHOUCHA KRAM KRAM EST","latitude":"36.831541"},{"longitude":"10.317284","registeredVoters":"567","signingVoters":"426","center_name":"E.P.RUE BOUCHOUCHA KRAM KRAM EST","latitude":"36.831541"},{"longitude":"10.317284","registeredVoters":"568","signingVoters":"379","center_name":"E.P.RUE BOUCHOUCHA KRAM KRAM EST","latitude":"36.831541"},{"longitude":"10.315827","registeredVoters":"546","signingVoters":"480","center_name":"E.P.AVENUE BOURGUIBA KRAM","latitude":"36.832481"},{"longitude":"10.315827","registeredVoters":"546","signingVoters":"474","center_name":"E.P.AVENUE BOURGUIBA KRAM","latitude":"36.832481"},{"longitude":"10.315827","registeredVoters":"541","signingVoters":"493","center_name":"E.P.AVENUE BOURGUIBA KRAM","latitude":"36.832481"},{"longitude":"10.315827","registeredVoters":"546","signingVoters":"478","center_name":"E.P.AVENUE BOURGUIBA KRAM","latitude":"36.832481"},{"longitude":"10.315827","registeredVoters":"546","signingVoters":"485","center_name":"E.P.AVENUE BOURGUIBA KRAM","latitude":"36.832481"},{"longitude":"10.315827","registeredVoters":"546","signingVoters":"462","center_name":"E.P.AVENUE BOURGUIBA KRAM","latitude":"36.832481"},{"longitude":"10.315827","registeredVoters":"546","signingVoters":"447","center_name":"E.P.AVENUE BOURGUIBA KRAM","latitude":"36.832481"},{"longitude":"10.315827","registeredVoters":"545","signingVoters":"410","center_name":"E.P.AVENUE BOURGUIBA KRAM","latitude":"36.832481"},{"longitude":"10.308839","registeredVoters":"580","signingVoters":"462","center_name":"E.P.2 R.FARHAT HACHED salambou -RIADH","latitude":"36.839035"},{"longitude":"10.308839","registeredVoters":"580","signingVoters":"439","center_name":"E.P.2 R.FARHAT HACHED salambou -RIADH","latitude":"36.839035"},{"longitude":"10.308839","registeredVoters":"580","signingVoters":"445","center_name":"E.P.2 R.FARHAT HACHED salambou -RIADH","latitude":"36.839035"},{"longitude":"10.308839","registeredVoters":"580","signingVoters":"377","center_name":"E.P.2 R.FARHAT HACHED salambou -RIADH","latitude":"36.839035"},{"longitude":"10.308839","registeredVoters":"575","signingVoters":"381","center_name":"E.P.2 R.FARHAT HACHED salambou -RIADH","latitude":"36.839035"},{"longitude":"10.307466","registeredVoters":"542","signingVoters":"422","center_name":"E.P.1 RUE 5 DECEMBRE SALAMBOU -RIADH","latitude":"36.838976"},{"longitude":"10.307466","registeredVoters":"542","signingVoters":"417","center_name":"E.P.1 RUE 5 DECEMBRE SALAMBOU -RIADH","latitude":"36.838976"},{"longitude":"10.307466","registeredVoters":"542","signingVoters":"397","center_name":"E.P.1 RUE 5 DECEMBRE SALAMBOU -RIADH","latitude":"36.838976"},{"longitude":"10.307466","registeredVoters":"542","signingVoters":"332","center_name":"E.P.1 RUE 5 DECEMBRE SALAMBOU -RIADH","latitude":"36.838976"},{"longitude":"10.307466","registeredVoters":"538","signingVoters":"338","center_name":"E.P.1 RUE 5 DECEMBRE SALAMBOU -RIADH","latitude":"36.838976"},{"longitude":"10.281636","registeredVoters":"538","signingVoters":"452","center_name":"E.P.C BAHIRA AIN ZAGHOU","latitude":"36.855839"},{"longitude":"10.281636","registeredVoters":"538","signingVoters":"476","center_name":"E.P.C BAHIRA AIN ZAGHOU","latitude":"36.855839"},{"longitude":"10.281636","registeredVoters":"538","signingVoters":"437","center_name":"E.P.C BAHIRA AIN ZAGHOU","latitude":"36.855839"},{"longitude":"10.281636","registeredVoters":"538","signingVoters":"445","center_name":"E.P.C BAHIRA AIN ZAGHOU","latitude":"36.855839"},{"longitude":"10.281636","registeredVoters":"538","signingVoters":"410","center_name":"E.P.C BAHIRA AIN ZAGHOU","latitude":"36.855839"},{"longitude":"10.281636","registeredVoters":"538","signingVoters":"411","center_name":"E.P.C BAHIRA AIN ZAGHOU","latitude":"36.855839"},{"longitude":"10.281636","registeredVoters":"534","signingVoters":"397","center_name":"E.P.C BAHIRA AIN ZAGHOU","latitude":"36.855839"},{"longitude":"10.267505","registeredVoters":"548","signingVoters":"439","center_name":"E.P.M.SLIM AIN ZAGHOUAN S.CH.","latitude":"36.877947"},{"longitude":"10.267505","registeredVoters":"548","signingVoters":"432","center_name":"E.P.M.SLIM AIN ZAGHOUAN S.CH.","latitude":"36.877947"},{"longitude":"10.267505","registeredVoters":"548","signingVoters":"439","center_name":"E.P.M.SLIM AIN ZAGHOUAN S.CH.","latitude":"36.877947"},{"longitude":"10.267505","registeredVoters":"548","signingVoters":"391","center_name":"E.P.M.SLIM AIN ZAGHOUAN S.CH.","latitude":"36.877947"},{"longitude":"10.267505","registeredVoters":"544","signingVoters":"382","center_name":"E.P.M.SLIM AIN ZAGHOUAN S.CH.","latitude":"36.877947"},{"longitude":"10.305681","registeredVoters":"549","signingVoters":"446","center_name":"E.P.SIDI AMOR KRAM OUEST","latitude":"36.844066"},{"longitude":"10.305681","registeredVoters":"549","signingVoters":"433","center_name":"E.P.SIDI AMOR KRAM OUEST","latitude":"36.844066"},{"longitude":"10.305681","registeredVoters":"549","signingVoters":"396","center_name":"E.P.SIDI AMOR KRAM OUEST","latitude":"36.844066"},{"longitude":"10.305681","registeredVoters":"549","signingVoters":"380","center_name":"E.P.SIDI AMOR KRAM OUEST","latitude":"36.844066"},{"longitude":"10.305681","registeredVoters":"549","signingVoters":"337","center_name":"E.P.SIDI AMOR KRAM OUEST","latitude":"36.844066"},{"longitude":"10.305681","registeredVoters":"549","signingVoters":"306","center_name":"E.P.SIDI AMOR KRAM OUEST","latitude":"36.844066"},{"longitude":"10.305681","registeredVoters":"547","signingVoters":"303","center_name":"E.P.SIDI AMOR KRAM OUEST","latitude":"36.844066"},{"longitude":"10.31511","registeredVoters":"592","signingVoters":"494","center_name":"E.P.RUE DE LIBYE SALAMBO -BIR HILOU","latitude":"36.843364"},{"longitude":"10.31511","registeredVoters":"592","signingVoters":"481","center_name":"E.P.RUE DE LIBYE SALAMBO -BIR HILOU","latitude":"36.843364"},{"longitude":"10.31511","registeredVoters":"592","signingVoters":"480","center_name":"E.P.RUE DE LIBYE SALAMBO -BIR HILOU","latitude":"36.843364"},{"longitude":"10.31511","registeredVoters":"592","signingVoters":"426","center_name":"E.P.RUE DE LIBYE SALAMBO -BIR HILOU","latitude":"36.843364"},{"longitude":"10.31511","registeredVoters":"591","signingVoters":"378","center_name":"E.P.RUE DE LIBYE SALAMBO -BIR HILOU","latitude":"36.843364"},{"longitude":"10.325267","registeredVoters":"541","signingVoters":"492","center_name":"E.P.RUE DES ROSES MARSA","latitude":"36.886307"},{"longitude":"10.325267","registeredVoters":"541","signingVoters":"484","center_name":"E.P.RUE DES ROSES MARSA","latitude":"36.886307"},{"longitude":"10.325267","registeredVoters":"541","signingVoters":"491","center_name":"E.P.RUE DES ROSES MARSA","latitude":"36.886307"},{"longitude":"10.325267","registeredVoters":"541","signingVoters":"491","center_name":"E.P.RUE DES ROSES MARSA","latitude":"36.886307"},{"longitude":"10.325267","registeredVoters":"541","signingVoters":"472","center_name":"E.P.RUE DES ROSES MARSA","latitude":"36.886307"},{"longitude":"10.325267","registeredVoters":"541","signingVoters":"493","center_name":"E.P.RUE DES ROSES MARSA","latitude":"36.886307"},{"longitude":"10.325267","registeredVoters":"541","signingVoters":"459","center_name":"E.P.RUE DES ROSES MARSA","latitude":"36.886307"},{"longitude":"10.325267","registeredVoters":"541","signingVoters":"452","center_name":"E.P.RUE DES ROSES MARSA","latitude":"36.886307"},{"longitude":"10.325267","registeredVoters":"540","signingVoters":"432","center_name":"E.P.RUE DES ROSES MARSA","latitude":"36.886307"},{"longitude":"10.326371","registeredVoters":"572","signingVoters":"521","center_name":"E.P.AVENUE BOURGUIBA MARSA -MARSA VILLE","latitude":"36.881794"},{"longitude":"10.326371","registeredVoters":"572","signingVoters":"517","center_name":"E.P.AVENUE BOURGUIBA MARSA -MARSA VILLE","latitude":"36.881794"},{"longitude":"10.326371","registeredVoters":"572","signingVoters":"518","center_name":"E.P.AVENUE BOURGUIBA MARSA -MARSA VILLE","latitude":"36.881794"},{"longitude":"10.326371","registeredVoters":"572","signingVoters":"503","center_name":"E.P.AVENUE BOURGUIBA MARSA -MARSA VILLE","latitude":"36.881794"},{"longitude":"10.326371","registeredVoters":"572","signingVoters":"504","center_name":"E.P.AVENUE BOURGUIBA MARSA -MARSA VILLE","latitude":"36.881794"},{"longitude":"10.326371","registeredVoters":"572","signingVoters":"508","center_name":"E.P.AVENUE BOURGUIBA MARSA -MARSA VILLE","latitude":"36.881794"},{"longitude":"10.326371","registeredVoters":"572","signingVoters":"461","center_name":"E.P.AVENUE BOURGUIBA MARSA -MARSA VILLE","latitude":"36.881794"},{"longitude":"10.326371","registeredVoters":"572","signingVoters":"455","center_name":"E.P.AVENUE BOURGUIBA MARSA -MARSA VILLE","latitude":"36.881794"},{"longitude":"10.327344","registeredVoters":"589","signingVoters":"515","center_name":"E.P.AV. T. M'HIRI MARSA  -MARSA VILLE","latitude":"36.880702"},{"longitude":"10.327344","registeredVoters":"589","signingVoters":"529","center_name":"E.P.AV. T. M'HIRI MARSA  -MARSA VILLE","latitude":"36.880702"},{"longitude":"10.327344","registeredVoters":"589","signingVoters":"526","center_name":"E.P.AV. T. M'HIRI MARSA  -MARSA VILLE","latitude":"36.880702"},{"longitude":"10.327344","registeredVoters":"589","signingVoters":"502","center_name":"E.P.AV. T. M'HIRI MARSA  -MARSA VILLE","latitude":"36.880702"},{"longitude":"10.327344","registeredVoters":"589","signingVoters":"505","center_name":"E.P.AV. T. M'HIRI MARSA  -MARSA VILLE","latitude":"36.880702"},{"longitude":"10.327344","registeredVoters":"589","signingVoters":"463","center_name":"E.P.AV. T. M'HIRI MARSA  -MARSA VILLE","latitude":"36.880702"},{"longitude":"10.327344","registeredVoters":"587","signingVoters":"442","center_name":"E.P.AV. T. M'HIRI MARSA  -MARSA VILLE","latitude":"36.880702"},{"longitude":"10.325749","registeredVoters":"594","signingVoters":"487","center_name":"COLLEGE  FADHEL BEN ACHOUR MARSA VILLE","latitude":"36.87974"},{"longitude":"10.325749","registeredVoters":"594","signingVoters":"514","center_name":"COLLEGE  FADHEL BEN ACHOUR MARSA VILLE","latitude":"36.87974"},{"longitude":"10.325749","registeredVoters":"594","signingVoters":"466","center_name":"COLLEGE  FADHEL BEN ACHOUR MARSA VILLE","latitude":"36.87974"},{"longitude":"10.325749","registeredVoters":"594","signingVoters":"486","center_name":"COLLEGE  FADHEL BEN ACHOUR MARSA VILLE","latitude":"36.87974"},{"longitude":"10.325749","registeredVoters":"594","signingVoters":"449","center_name":"COLLEGE  FADHEL BEN ACHOUR MARSA VILLE","latitude":"36.87974"},{"longitude":"10.325749","registeredVoters":"594","signingVoters":"449","center_name":"COLLEGE  FADHEL BEN ACHOUR MARSA VILLE","latitude":"36.87974"},{"longitude":"10.325749","registeredVoters":"595","signingVoters":"385","center_name":"COLLEGE  FADHEL BEN ACHOUR MARSA VILLE","latitude":"36.87974"},{"longitude":"10.326429","registeredVoters":"555","signingVoters":"442","center_name":"Collge Taieb Mhiri la Marsa","latitude":"36.88187"},{"longitude":"10.326429","registeredVoters":"555","signingVoters":"410","center_name":"Collge Taieb Mhiri la Marsa","latitude":"36.88187"},{"longitude":"10.326429","registeredVoters":"555","signingVoters":"404","center_name":"Collge Taieb Mhiri la Marsa","latitude":"36.88187"},{"longitude":"10.326429","registeredVoters":"554","signingVoters":"364","center_name":"Collge Taieb Mhiri la Marsa","latitude":"36.88187"},{"longitude":"10.311535","registeredVoters":"579","signingVoters":"473","center_name":"E.P.RUE MOHAMED ALI  - LES JARDINS","latitude":"36.878011"},{"longitude":"10.311535","registeredVoters":"579","signingVoters":"481","center_name":"E.P.RUE MOHAMED ALI  - LES JARDINS","latitude":"36.878011"},{"longitude":"10.311535","registeredVoters":"579","signingVoters":"420","center_name":"E.P.RUE MOHAMED ALI  - LES JARDINS","latitude":"36.878011"},{"longitude":"10.311535","registeredVoters":"579","signingVoters":"477","center_name":"E.P.RUE MOHAMED ALI  - LES JARDINS","latitude":"36.878011"},{"longitude":"10.311535","registeredVoters":"579","signingVoters":"402","center_name":"E.P.RUE MOHAMED ALI  - LES JARDINS","latitude":"36.878011"},{"longitude":"10.311535","registeredVoters":"580","signingVoters":"370","center_name":"E.P.RUE MOHAMED ALI  - LES JARDINS","latitude":"36.878011"},{"longitude":"10.312411","registeredVoters":"584","signingVoters":"501","center_name":"E.P.CITE RIADH EL MARSA","latitude":"36.88437"},{"longitude":"10.312411","registeredVoters":"584","signingVoters":"492","center_name":"E.P.CITE RIADH EL MARSA","latitude":"36.88437"},{"longitude":"10.312411","registeredVoters":"584","signingVoters":"502","center_name":"E.P.CITE RIADH EL MARSA","latitude":"36.88437"},{"longitude":"10.312411","registeredVoters":"584","signingVoters":"463","center_name":"E.P.CITE RIADH EL MARSA","latitude":"36.88437"},{"longitude":"10.312411","registeredVoters":"584","signingVoters":"469","center_name":"E.P.CITE RIADH EL MARSA","latitude":"36.88437"},{"longitude":"10.312411","registeredVoters":"584","signingVoters":"422","center_name":"E.P.CITE RIADH EL MARSA","latitude":"36.88437"},{"longitude":"10.312411","registeredVoters":"582","signingVoters":"413","center_name":"E.P.CITE RIADH EL MARSA","latitude":"36.88437"},{"longitude":"10.314819","registeredVoters":"580","signingVoters":"420","center_name":"COLLEGE  CITE RIADH LA MARSA","latitude":"36.888782"},{"longitude":"10.314819","registeredVoters":"580","signingVoters":"392","center_name":"COLLEGE  CITE RIADH LA MARSA","latitude":"36.888782"},{"longitude":"10.314819","registeredVoters":"580","signingVoters":"407","center_name":"COLLEGE  CITE RIADH LA MARSA","latitude":"36.888782"},{"longitude":"10.314819","registeredVoters":"580","signingVoters":"353","center_name":"COLLEGE  CITE RIADH LA MARSA","latitude":"36.888782"},{"longitude":"10.314819","registeredVoters":"579","signingVoters":"334","center_name":"COLLEGE  CITE RIADH LA MARSA","latitude":"36.888782"},{"longitude":"10.309257","registeredVoters":"533","signingVoters":"438","center_name":"E.P.Farhat Hached -RMILA","latitude":"36.89012"},{"longitude":"10.309257","registeredVoters":"533","signingVoters":"436","center_name":"E.P.Farhat Hached -RMILA","latitude":"36.89012"},{"longitude":"10.309257","registeredVoters":"533","signingVoters":"412","center_name":"E.P.Farhat Hached -RMILA","latitude":"36.89012"},{"longitude":"10.309257","registeredVoters":"533","signingVoters":"401","center_name":"E.P.Farhat Hached -RMILA","latitude":"36.89012"},{"longitude":"10.309257","registeredVoters":"533","signingVoters":"381","center_name":"E.P.Farhat Hached -RMILA","latitude":"36.89012"},{"longitude":"10.309257","registeredVoters":"533","signingVoters":"364","center_name":"E.P.Farhat Hached -RMILA","latitude":"36.89012"},{"longitude":"10.309257","registeredVoters":"529","signingVoters":"315","center_name":"E.P.Farhat Hached -RMILA","latitude":"36.89012"},{"longitude":"10.304983","registeredVoters":"534","signingVoters":"423","center_name":"E.P.CITE NOUVELLE MARSA -RMILA","latitude":"36.886663"},{"longitude":"10.304983","registeredVoters":"534","signingVoters":"335","center_name":"E.P.CITE NOUVELLE MARSA -RMILA","latitude":"36.886663"},{"longitude":"10.300057","registeredVoters":"572","signingVoters":"472","center_name":"E.P.GAMMARTH","latitude":"36.905363"},{"longitude":"10.300057","registeredVoters":"572","signingVoters":"433","center_name":"E.P.GAMMARTH","latitude":"36.905363"},{"longitude":"10.300057","registeredVoters":"572","signingVoters":"473","center_name":"E.P.GAMMARTH","latitude":"36.905363"},{"longitude":"10.300057","registeredVoters":"572","signingVoters":"402","center_name":"E.P.GAMMARTH","latitude":"36.905363"},{"longitude":"10.300057","registeredVoters":"570","signingVoters":"350","center_name":"E.P.GAMMARTH","latitude":"36.905363"},{"longitude":"10.290909","registeredVoters":"476","signingVoters":"390","center_name":"E.P. 14 JANVIER HARROUCHE  GAMARTH","latitude":"36.90905"},{"longitude":"10.290909","registeredVoters":"476","signingVoters":"357","center_name":"E.P. 14 JANVIER HARROUCHE  GAMARTH","latitude":"36.90905"},{"longitude":"10.302975","registeredVoters":"545","signingVoters":"481","center_name":"E.P.SIDI DAOUD","latitude":"36.864863"},{"longitude":"10.302975","registeredVoters":"545","signingVoters":"477","center_name":"E.P.SIDI DAOUD","latitude":"36.864863"},{"longitude":"10.302975","registeredVoters":"546","signingVoters":"439","center_name":"E.P.SIDI DAOUD","latitude":"36.864863"},{"longitude":"10.302975","registeredVoters":"545","signingVoters":"446","center_name":"E.P.SIDI DAOUD","latitude":"36.864863"},{"longitude":"10.302975","registeredVoters":"545","signingVoters":"461","center_name":"E.P.SIDI DAOUD","latitude":"36.864863"},{"longitude":"10.302975","registeredVoters":"545","signingVoters":"443","center_name":"E.P.SIDI DAOUD","latitude":"36.864863"},{"longitude":"10.302975","registeredVoters":"545","signingVoters":"420","center_name":"E.P.SIDI DAOUD","latitude":"36.864863"},{"longitude":"10.302975","registeredVoters":"541","signingVoters":"354","center_name":"E.P.SIDI DAOUD","latitude":"36.864863"},{"longitude":"10.312324","registeredVoters":"573","signingVoters":"434","center_name":"COLLEGE  SIDI DAOUD","latitude":"36.86192"},{"longitude":"10.312324","registeredVoters":"573","signingVoters":"381","center_name":"COLLEGE  SIDI DAOUD","latitude":"36.86192"},{"longitude":"10.312324","registeredVoters":"574","signingVoters":"347","center_name":"COLLEGE  SIDI DAOUD","latitude":"36.86192"},{"longitude":"10.290996","registeredVoters":"578","signingVoters":"447","center_name":"E.P.BAHER LAZREG MARSA","latitude":"36.875392"},{"longitude":"10.290996","registeredVoters":"578","signingVoters":"416","center_name":"E.P.BAHER LAZREG MARSA","latitude":"36.875392"},{"longitude":"10.290996","registeredVoters":"578","signingVoters":"436","center_name":"E.P.BAHER LAZREG MARSA","latitude":"36.875392"},{"longitude":"10.290996","registeredVoters":"578","signingVoters":"417","center_name":"E.P.BAHER LAZREG MARSA","latitude":"36.875392"},{"longitude":"10.290996","registeredVoters":"578","signingVoters":"359","center_name":"E.P.BAHER LAZREG MARSA","latitude":"36.875392"},{"longitude":"10.290996","registeredVoters":"578","signingVoters":"367","center_name":"E.P.BAHER LAZREG MARSA","latitude":"36.875392"},{"longitude":"10.290996","registeredVoters":"573","signingVoters":"293","center_name":"E.P.BAHER LAZREG MARSA","latitude":"36.875392"},{"longitude":"10.172066","registeredVoters":"577","signingVoters":"523","center_name":"E.P.PLA. MENDES FR MUTUELLEVILLE -1 JUIN","latitude":"36.832601"},{"longitude":"10.172066","registeredVoters":"577","signingVoters":"523","center_name":"E.P.PLA. MENDES FR MUTUELLEVILLE -1 JUIN","latitude":"36.832601"},{"longitude":"10.172066","registeredVoters":"577","signingVoters":"535","center_name":"E.P.PLA. MENDES FR MUTUELLEVILLE -1 JUIN","latitude":"36.832601"},{"longitude":"10.172066","registeredVoters":"577","signingVoters":"514","center_name":"E.P.PLA. MENDES FR MUTUELLEVILLE -1 JUIN","latitude":"36.832601"},{"longitude":"10.172066","registeredVoters":"577","signingVoters":"483","center_name":"E.P.PLA. MENDES FR MUTUELLEVILLE -1 JUIN","latitude":"36.832601"},{"longitude":"10.172066","registeredVoters":"572","signingVoters":"468","center_name":"E.P.PLA. MENDES FR MUTUELLEVILLE -1 JUIN","latitude":"36.832601"},{"longitude":"10.165367","registeredVoters":"585","signingVoters":"498","center_name":"COLLEGE  LE BEAU SITE MENZEH -1 JUIN","latitude":"36.834212"},{"longitude":"10.165367","registeredVoters":"585","signingVoters":"486","center_name":"COLLEGE  LE BEAU SITE MENZEH -1 JUIN","latitude":"36.834212"},{"longitude":"10.165367","registeredVoters":"588","signingVoters":"443","center_name":"COLLEGE  LE BEAU SITE MENZEH -1 JUIN","latitude":"36.834212"},{"longitude":"10.178","registeredVoters":"575","signingVoters":"534","center_name":"E.P.RUE HEDI KHEFACHA MENZAH","latitude":"36.83732"},{"longitude":"10.178","registeredVoters":"575","signingVoters":"530","center_name":"E.P.RUE HEDI KHEFACHA MENZAH","latitude":"36.83732"},{"longitude":"10.178","registeredVoters":"575","signingVoters":"517","center_name":"E.P.RUE HEDI KHEFACHA MENZAH","latitude":"36.83732"},{"longitude":"10.178","registeredVoters":"575","signingVoters":"518","center_name":"E.P.RUE HEDI KHEFACHA MENZAH","latitude":"36.83732"},{"longitude":"10.178","registeredVoters":"575","signingVoters":"509","center_name":"E.P.RUE HEDI KHEFACHA MENZAH","latitude":"36.83732"},{"longitude":"10.179383","registeredVoters":"553","signingVoters":"468","center_name":"COLLEGE  RUE PLOMB -MENZEH","latitude":"36.836893"},{"longitude":"10.179383","registeredVoters":"553","signingVoters":"463","center_name":"COLLEGE  RUE PLOMB -MENZEH","latitude":"36.836893"},{"longitude":"10.179383","registeredVoters":"553","signingVoters":"404","center_name":"COLLEGE  RUE PLOMB -MENZEH","latitude":"36.836893"},{"longitude":"10.179383","registeredVoters":"555","signingVoters":"411","center_name":"COLLEGE  RUE PLOMB -MENZEH","latitude":"36.836893"},{"longitude":"10.156661","registeredVoters":"570","signingVoters":"527","center_name":"E.P.CITE EL MANAR 2 -MANAR","latitude":"36.836155"},{"longitude":"10.156661","registeredVoters":"570","signingVoters":"528","center_name":"E.P.CITE EL MANAR 2 -MANAR","latitude":"36.836155"},{"longitude":"10.156661","registeredVoters":"570","signingVoters":"529","center_name":"E.P.CITE EL MANAR 2 -MANAR","latitude":"36.836155"},{"longitude":"10.156661","registeredVoters":"570","signingVoters":"518","center_name":"E.P.CITE EL MANAR 2 -MANAR","latitude":"36.836155"},{"longitude":"10.156661","registeredVoters":"570","signingVoters":"501","center_name":"E.P.CITE EL MANAR 2 -MANAR","latitude":"36.836155"},{"longitude":"10.156661","registeredVoters":"570","signingVoters":"474","center_name":"E.P.CITE EL MANAR 2 -MANAR","latitude":"36.836155"},{"longitude":"10.156661","registeredVoters":"567","signingVoters":"464","center_name":"E.P.CITE EL MANAR 2 -MANAR","latitude":"36.836155"},{"longitude":"10.155582","registeredVoters":"596","signingVoters":"554","center_name":"E.P.MENZEH 9 -MANAR","latitude":"36.84722"},{"longitude":"10.155582","registeredVoters":"596","signingVoters":"556","center_name":"E.P.MENZEH 9 -MANAR","latitude":"36.84722"},{"longitude":"10.155582","registeredVoters":"596","signingVoters":"556","center_name":"E.P.MENZEH 9 -MANAR","latitude":"36.84722"},{"longitude":"10.155582","registeredVoters":"596","signingVoters":"532","center_name":"E.P.MENZEH 9 -MANAR","latitude":"36.84722"},{"longitude":"10.155582","registeredVoters":"596","signingVoters":"542","center_name":"E.P.MENZEH 9 -MANAR","latitude":"36.84722"},{"longitude":"10.155582","registeredVoters":"596","signingVoters":"494","center_name":"E.P.MENZEH 9 -MANAR","latitude":"36.84722"},{"longitude":"10.155582","registeredVoters":"596","signingVoters":"509","center_name":"E.P.MENZEH 9 -MANAR","latitude":"36.84722"},{"longitude":"10.155582","registeredVoters":"594","signingVoters":"505","center_name":"E.P.MENZEH 9 -MANAR","latitude":"36.84722"},{"longitude":"10.15546","registeredVoters":"553","signingVoters":"470","center_name":"COLLEGE  MANAR 2 MANAR","latitude":"36.838991"},{"longitude":"10.15546","registeredVoters":"553","signingVoters":"492","center_name":"COLLEGE  MANAR 2 MANAR","latitude":"36.838991"},{"longitude":"10.15546","registeredVoters":"553","signingVoters":"470","center_name":"COLLEGE  MANAR 2 MANAR","latitude":"36.838991"},{"longitude":"10.15546","registeredVoters":"553","signingVoters":"464","center_name":"COLLEGE  MANAR 2 MANAR","latitude":"36.838991"},{"longitude":"10.15546","registeredVoters":"553","signingVoters":"426","center_name":"COLLEGE  MANAR 2 MANAR","latitude":"36.838991"},{"longitude":"10.15546","registeredVoters":"553","signingVoters":"429","center_name":"COLLEGE  MANAR 2 MANAR","latitude":"36.838991"},{"longitude":"10.15546","registeredVoters":"553","signingVoters":"438","center_name":"COLLEGE  MANAR 2 MANAR","latitude":"36.838991"},{"longitude":"10.15546","registeredVoters":"552","signingVoters":"395","center_name":"COLLEGE  MANAR 2 MANAR","latitude":"36.838991"},{"longitude":"10.152735","registeredVoters":"558","signingVoters":"510","center_name":"E.P.MANAR 1 -MANAR 1","latitude":"36.833811"},{"longitude":"10.152735","registeredVoters":"558","signingVoters":"490","center_name":"E.P.MANAR 1 -MANAR 1","latitude":"36.833811"},{"longitude":"10.152735","registeredVoters":"558","signingVoters":"467","center_name":"E.P.MANAR 1 -MANAR 1","latitude":"36.833811"},{"longitude":"10.152735","registeredVoters":"558","signingVoters":"435","center_name":"E.P.MANAR 1 -MANAR 1","latitude":"36.833811"},{"longitude":"10.152735","registeredVoters":"560","signingVoters":"397","center_name":"E.P.MANAR 1 -MANAR 1","latitude":"36.833811"},{"longitude":"10.1471","registeredVoters":"430","signingVoters":"375","center_name":"COLLEGE  MANAR 1","latitude":"36.835445"},{"longitude":"10.1471","registeredVoters":"430","signingVoters":"331","center_name":"COLLEGE  MANAR 1","latitude":"36.835445"},{"longitude":"10.1471","registeredVoters":"430","signingVoters":"332","center_name":"COLLEGE  MANAR 1","latitude":"36.835445"},{"longitude":"10.137898","registeredVoters":"589","signingVoters":"515","center_name":"E.P.AVENUE BOURGUIBA BARDO","latitude":"36.808597"},{"longitude":"10.137898","registeredVoters":"589","signingVoters":"516","center_name":"E.P.AVENUE BOURGUIBA BARDO","latitude":"36.808597"},{"longitude":"10.137898","registeredVoters":"589","signingVoters":"517","center_name":"E.P.AVENUE BOURGUIBA BARDO","latitude":"36.808597"},{"longitude":"10.137898","registeredVoters":"589","signingVoters":"501","center_name":"E.P.AVENUE BOURGUIBA BARDO","latitude":"36.808597"},{"longitude":"10.137898","registeredVoters":"589","signingVoters":"498","center_name":"E.P.AVENUE BOURGUIBA BARDO","latitude":"36.808597"},{"longitude":"10.137898","registeredVoters":"589","signingVoters":"455","center_name":"E.P.AVENUE BOURGUIBA BARDO","latitude":"36.808597"},{"longitude":"10.137898","registeredVoters":"589","signingVoters":"440","center_name":"E.P.AVENUE BOURGUIBA BARDO","latitude":"36.808597"},{"longitude":"10.137898","registeredVoters":"589","signingVoters":"452","center_name":"E.P.AVENUE BOURGUIBA BARDO","latitude":"36.808597"},{"longitude":"10.137898","registeredVoters":"585","signingVoters":"400","center_name":"E.P.AVENUE BOURGUIBA BARDO","latitude":"36.808597"},{"longitude":"10.1318","registeredVoters":"599","signingVoters":"520","center_name":"E.P.CITE RIADH -BARDO","latitude":"36.81446"},{"longitude":"10.1318","registeredVoters":"599","signingVoters":"493","center_name":"E.P.CITE RIADH -BARDO","latitude":"36.81446"},{"longitude":"10.1318","registeredVoters":"599","signingVoters":"519","center_name":"E.P.CITE RIADH -BARDO","latitude":"36.81446"},{"longitude":"10.1318","registeredVoters":"599","signingVoters":"519","center_name":"E.P.CITE RIADH -BARDO","latitude":"36.81446"},{"longitude":"10.1318","registeredVoters":"599","signingVoters":"484","center_name":"E.P.CITE RIADH -BARDO","latitude":"36.81446"},{"longitude":"10.1318","registeredVoters":"599","signingVoters":"459","center_name":"E.P.CITE RIADH -BARDO","latitude":"36.81446"},{"longitude":"10.1318","registeredVoters":"594","signingVoters":"433","center_name":"E.P.CITE RIADH -BARDO","latitude":"36.81446"},{"longitude":"10.134374","registeredVoters":"415","signingVoters":"349","center_name":"C. cit Fattouma Bourguiba Bardo","latitude":"36.814043"},{"longitude":"10.134374","registeredVoters":"415","signingVoters":"317","center_name":"C. cit Fattouma Bourguiba Bardo","latitude":"36.814043"},{"longitude":"10.134374","registeredVoters":"413","signingVoters":"287","center_name":"C. cit Fattouma Bourguiba Bardo","latitude":"36.814043"},{"longitude":"10.135385","registeredVoters":"579","signingVoters":"488","center_name":"E.P.RUE HEDI CHAKER -BARDO SUD","latitude":"36.801176"},{"longitude":"10.135385","registeredVoters":"579","signingVoters":"474","center_name":"E.P.RUE HEDI CHAKER -BARDO SUD","latitude":"36.801176"},{"longitude":"10.135385","registeredVoters":"579","signingVoters":"482","center_name":"E.P.RUE HEDI CHAKER -BARDO SUD","latitude":"36.801176"},{"longitude":"10.135385","registeredVoters":"579","signingVoters":"459","center_name":"E.P.RUE HEDI CHAKER -BARDO SUD","latitude":"36.801176"},{"longitude":"10.135385","registeredVoters":"579","signingVoters":"456","center_name":"E.P.RUE HEDI CHAKER -BARDO SUD","latitude":"36.801176"},{"longitude":"10.135385","registeredVoters":"579","signingVoters":"410","center_name":"E.P.RUE HEDI CHAKER -BARDO SUD","latitude":"36.801176"},{"longitude":"10.135385","registeredVoters":"578","signingVoters":"409","center_name":"E.P.RUE HEDI CHAKER -BARDO SUD","latitude":"36.801176"},{"longitude":"10.141242","registeredVoters":"555","signingVoters":"470","center_name":"E.P.RUE TAZARKA BARDO -BOUCHOUCHA","latitude":"36.810392"},{"longitude":"10.141242","registeredVoters":"555","signingVoters":"440","center_name":"E.P.RUE TAZARKA BARDO -BOUCHOUCHA","latitude":"36.810392"},{"longitude":"10.141242","registeredVoters":"555","signingVoters":"456","center_name":"E.P.RUE TAZARKA BARDO -BOUCHOUCHA","latitude":"36.810392"},{"longitude":"10.141242","registeredVoters":"555","signingVoters":"425","center_name":"E.P.RUE TAZARKA BARDO -BOUCHOUCHA","latitude":"36.810392"},{"longitude":"10.141242","registeredVoters":"555","signingVoters":"418","center_name":"E.P.RUE TAZARKA BARDO -BOUCHOUCHA","latitude":"36.810392"},{"longitude":"10.141242","registeredVoters":"555","signingVoters":"426","center_name":"E.P.RUE TAZARKA BARDO -BOUCHOUCHA","latitude":"36.810392"},{"longitude":"10.141242","registeredVoters":"555","signingVoters":"430","center_name":"E.P.RUE TAZARKA BARDO -BOUCHOUCHA","latitude":"36.810392"},{"longitude":"10.14608","registeredVoters":"528","signingVoters":"447","center_name":"E.P.R.DES ORANGERS -BOUCHOUCHA","latitude":"36.81039"},{"longitude":"10.14608","registeredVoters":"528","signingVoters":"455","center_name":"E.P.R.DES ORANGERS -BOUCHOUCHA","latitude":"36.81039"},{"longitude":"10.14608","registeredVoters":"528","signingVoters":"451","center_name":"E.P.R.DES ORANGERS -BOUCHOUCHA","latitude":"36.81039"},{"longitude":"10.14608","registeredVoters":"528","signingVoters":"423","center_name":"E.P.R.DES ORANGERS -BOUCHOUCHA","latitude":"36.81039"},{"longitude":"10.14608","registeredVoters":"528","signingVoters":"442","center_name":"E.P.R.DES ORANGERS -BOUCHOUCHA","latitude":"36.81039"},{"longitude":"10.14608","registeredVoters":"528","signingVoters":"366","center_name":"E.P.R.DES ORANGERS -BOUCHOUCHA","latitude":"36.81039"},{"longitude":"10.14608","registeredVoters":"528","signingVoters":"393","center_name":"E.P.R.DES ORANGERS -BOUCHOUCHA","latitude":"36.81039"},{"longitude":"10.14608","registeredVoters":"524","signingVoters":"399","center_name":"E.P.R.DES ORANGERS -BOUCHOUCHA","latitude":"36.81039"},{"longitude":"10.146844","registeredVoters":"406","signingVoters":"312","center_name":"E.P.RUE ESSANAOUBAR -LA BONNE RESIDENCE","latitude":"36.807919"},{"longitude":"10.129226","registeredVoters":"542","signingVoters":"452","center_name":"E.P.RUE MEDENINE N.21 BARDO KHAZNADAR","latitude":"36.807712"},{"longitude":"10.129226","registeredVoters":"542","signingVoters":"428","center_name":"E.P.RUE MEDENINE N.21 BARDO KHAZNADAR","latitude":"36.807712"},{"longitude":"10.129226","registeredVoters":"542","signingVoters":"404","center_name":"E.P.RUE MEDENINE N.21 BARDO KHAZNADAR","latitude":"36.807712"},{"longitude":"10.129226","registeredVoters":"542","signingVoters":"361","center_name":"E.P.RUE MEDENINE N.21 BARDO KHAZNADAR","latitude":"36.807712"},{"longitude":"10.129226","registeredVoters":"538","signingVoters":"378","center_name":"E.P.RUE MEDENINE N.21 BARDO KHAZNADAR","latitude":"36.807712"},{"longitude":"10.126679","registeredVoters":"583","signingVoters":"505","center_name":"E.P.ESSAIDIA PAR ENNAKHIL -KHAZNADAR","latitude":"36.802728"},{"longitude":"10.126679","registeredVoters":"583","signingVoters":"511","center_name":"E.P.ESSAIDIA PAR ENNAKHIL -KHAZNADAR","latitude":"36.802728"},{"longitude":"10.126679","registeredVoters":"583","signingVoters":"531","center_name":"E.P.ESSAIDIA PAR ENNAKHIL -KHAZNADAR","latitude":"36.802728"},{"longitude":"10.126679","registeredVoters":"583","signingVoters":"509","center_name":"E.P.ESSAIDIA PAR ENNAKHIL -KHAZNADAR","latitude":"36.802728"},{"longitude":"10.126679","registeredVoters":"583","signingVoters":"501","center_name":"E.P.ESSAIDIA PAR ENNAKHIL -KHAZNADAR","latitude":"36.802728"},{"longitude":"10.126679","registeredVoters":"583","signingVoters":"503","center_name":"E.P.ESSAIDIA PAR ENNAKHIL -KHAZNADAR","latitude":"36.802728"},{"longitude":"10.126679","registeredVoters":"583","signingVoters":"465","center_name":"E.P.ESSAIDIA PAR ENNAKHIL -KHAZNADAR","latitude":"36.802728"},{"longitude":"10.126679","registeredVoters":"583","signingVoters":"462","center_name":"E.P.ESSAIDIA PAR ENNAKHIL -KHAZNADAR","latitude":"36.802728"},{"longitude":"10.126679","registeredVoters":"583","signingVoters":"495","center_name":"E.P.ESSAIDIA PAR ENNAKHIL -KHAZNADAR","latitude":"36.802728"},{"longitude":"10.121301","registeredVoters":"555","signingVoters":"456","center_name":"E.P.KSAR SAID 1","latitude":"36.816627"},{"longitude":"10.121301","registeredVoters":"555","signingVoters":"433","center_name":"E.P.KSAR SAID 1","latitude":"36.816627"},{"longitude":"10.121301","registeredVoters":"555","signingVoters":"439","center_name":"E.P.KSAR SAID 1","latitude":"36.816627"},{"longitude":"10.121301","registeredVoters":"555","signingVoters":"420","center_name":"E.P.KSAR SAID 1","latitude":"36.816627"},{"longitude":"10.121301","registeredVoters":"555","signingVoters":"377","center_name":"E.P.KSAR SAID 1","latitude":"36.816627"},{"longitude":"10.121301","registeredVoters":"555","signingVoters":"390","center_name":"E.P.KSAR SAID 1","latitude":"36.816627"},{"longitude":"10.122217","registeredVoters":"595","signingVoters":"473","center_name":"E.P.2 MARS 34 KSAR SAID 2","latitude":"36.821426"},{"longitude":"10.122217","registeredVoters":"595","signingVoters":"483","center_name":"E.P.2 MARS 34 KSAR SAID 2","latitude":"36.821426"},{"longitude":"10.122217","registeredVoters":"595","signingVoters":"450","center_name":"E.P.2 MARS 34 KSAR SAID 2","latitude":"36.821426"},{"longitude":"10.122217","registeredVoters":"593","signingVoters":"415","center_name":"E.P.2 MARS 34 KSAR SAID 2","latitude":"36.821426"},{"longitude":"10.118075","registeredVoters":"542","signingVoters":"431","center_name":"E.P.KSAR SAID 3 BARDO  KSAR SAID 2","latitude":"36.824353"},{"longitude":"10.118075","registeredVoters":"542","signingVoters":"437","center_name":"E.P.KSAR SAID 3 BARDO  KSAR SAID 2","latitude":"36.824353"},{"longitude":"10.118075","registeredVoters":"542","signingVoters":"418","center_name":"E.P.KSAR SAID 3 BARDO  KSAR SAID 2","latitude":"36.824353"},{"longitude":"10.118075","registeredVoters":"542","signingVoters":"375","center_name":"E.P.KSAR SAID 3 BARDO  KSAR SAID 2","latitude":"36.824353"},{"longitude":"10.118075","registeredVoters":"539","signingVoters":"378","center_name":"E.P.KSAR SAID 3 BARDO  KSAR SAID 2","latitude":"36.824353"},{"longitude":"10.122916","registeredVoters":"571","signingVoters":"473","center_name":"E.P.CITE DES OFFICIERS SAADA","latitude":"36.799692"},{"longitude":"10.122916","registeredVoters":"571","signingVoters":"446","center_name":"E.P.CITE DES OFFICIERS SAADA","latitude":"36.799692"},{"longitude":"10.122916","registeredVoters":"571","signingVoters":"461","center_name":"E.P.CITE DES OFFICIERS SAADA","latitude":"36.799692"},{"longitude":"10.122916","registeredVoters":"571","signingVoters":"415","center_name":"E.P.CITE DES OFFICIERS SAADA","latitude":"36.799692"},{"longitude":"10.122916","registeredVoters":"571","signingVoters":"391","center_name":"E.P.CITE DES OFFICIERS SAADA","latitude":"36.799692"},{"longitude":"10.122916","registeredVoters":"569","signingVoters":"380","center_name":"E.P.CITE DES OFFICIERS SAADA","latitude":"36.799692"},{"longitude":"10.114952","registeredVoters":"463","signingVoters":"371","center_name":"E.P.IBN SINA  BARDO","latitude":"36.829822"},{"longitude":"10.114952","registeredVoters":"463","signingVoters":"324","center_name":"E.P.IBN SINA  BARDO","latitude":"36.829822"},{"longitude":"10.303804","registeredVoters":"575","signingVoters":"479","center_name":"E.P.9 RUE 2 MARS LA GOULETTE","latitude":"36.817708"},{"longitude":"10.303804","registeredVoters":"575","signingVoters":"505","center_name":"E.P.9 RUE 2 MARS LA GOULETTE","latitude":"36.817708"},{"longitude":"10.303804","registeredVoters":"575","signingVoters":"493","center_name":"E.P.9 RUE 2 MARS LA GOULETTE","latitude":"36.817708"},{"longitude":"10.303804","registeredVoters":"575","signingVoters":"484","center_name":"E.P.9 RUE 2 MARS LA GOULETTE","latitude":"36.817708"},{"longitude":"10.303804","registeredVoters":"575","signingVoters":"467","center_name":"E.P.9 RUE 2 MARS LA GOULETTE","latitude":"36.817708"},{"longitude":"10.303804","registeredVoters":"575","signingVoters":"443","center_name":"E.P.9 RUE 2 MARS LA GOULETTE","latitude":"36.817708"},{"longitude":"10.303804","registeredVoters":"575","signingVoters":"462","center_name":"E.P.9 RUE 2 MARS LA GOULETTE","latitude":"36.817708"},{"longitude":"10.303804","registeredVoters":"573","signingVoters":"415","center_name":"E.P.9 RUE 2 MARS LA GOULETTE","latitude":"36.817708"},{"longitude":"10.311495","registeredVoters":"572","signingVoters":"481","center_name":"E.P.KHEIREDDINE RUE ABOU TEMMAM","latitude":"36.827204"},{"longitude":"10.311495","registeredVoters":"572","signingVoters":"463","center_name":"E.P.KHEIREDDINE RUE ABOU TEMMAM","latitude":"36.827204"},{"longitude":"10.311495","registeredVoters":"572","signingVoters":"492","center_name":"E.P.KHEIREDDINE RUE ABOU TEMMAM","latitude":"36.827204"},{"longitude":"10.311495","registeredVoters":"572","signingVoters":"469","center_name":"E.P.KHEIREDDINE RUE ABOU TEMMAM","latitude":"36.827204"},{"longitude":"10.311495","registeredVoters":"572","signingVoters":"477","center_name":"E.P.KHEIREDDINE RUE ABOU TEMMAM","latitude":"36.827204"},{"longitude":"10.311495","registeredVoters":"572","signingVoters":"445","center_name":"E.P.KHEIREDDINE RUE ABOU TEMMAM","latitude":"36.827204"},{"longitude":"10.311495","registeredVoters":"570","signingVoters":"420","center_name":"E.P.KHEIREDDINE RUE ABOU TEMMAM","latitude":"36.827204"},{"longitude":"10.258233","registeredVoters":"545","signingVoters":"483","center_name":"E.P.AOUINA RTE SOUKRA -T. MHIRI AOUINA","latitude":"36.851601"},{"longitude":"10.258233","registeredVoters":"545","signingVoters":"496","center_name":"E.P.AOUINA RTE SOUKRA -T. MHIRI AOUINA","latitude":"36.851601"},{"longitude":"10.258233","registeredVoters":"545","signingVoters":"480","center_name":"E.P.AOUINA RTE SOUKRA -T. MHIRI AOUINA","latitude":"36.851601"},{"longitude":"10.258233","registeredVoters":"545","signingVoters":"495","center_name":"E.P.AOUINA RTE SOUKRA -T. MHIRI AOUINA","latitude":"36.851601"},{"longitude":"10.258233","registeredVoters":"545","signingVoters":"466","center_name":"E.P.AOUINA RTE SOUKRA -T. MHIRI AOUINA","latitude":"36.851601"},