[{"signingVoters_pres14":"84","id":"1","center_name":"E.P.HENCHIR EL MALEH","center_name_ar":"م إبتدائية هنشير المالح - زواغة","registeredVoters_mun18":"200","mun_name_ar":"المعقولة","gov_name_ar":"باجة","gov_name_en":"Beja","lat":"36.63936593","lon":"9.249776757","registeredVoters_par14":"169","signingVoters_par14":"96","registeredVoters_pres14":"169"},{"signingVoters_pres14":"","id":"2","center_name":"E.P.EL KHOUEY - ESKHIRA","center_name_ar":"م إبتدائية الخوي - الصخيرة","registeredVoters_mun18":"201","mun_name_ar":"الصخيرة","gov_name_ar":"صفاقس","gov_name_en":"Sfax","lat":"34.264677","lon":"10.032357","registeredVoters_par14":"202","signingVoters_par14":"171","registeredVoters_pres14":""},{"signingVoters_pres14":"43","id":"3","center_name":"E.P.EZ ZAYATINE EL OUSAIA","center_name_ar":"م إبتدائية الزياتين - الوساعية","registeredVoters_mun18":"201","mun_name_ar":"الشرائع مشرق الشمس","gov_name_ar":"القصرين","gov_name_en":"Kasserine","lat":"35.268523","lon":"8.8980518","registeredVoters_par14":"147","signingVoters_par14":"66","registeredVoters_pres14":"147"},{"signingVoters_pres14":"","id":"4","center_name":"E.P.OULED HASSEN - KASSEB","center_name_ar":"م إبتدائية أو?د حسن - كساب","registeredVoters_mun18":"201","mun_name_ar":"بلطة بوعوان","gov_name_ar":"جندوبة","gov_name_en":"Jendouba","lat":"36.738002","lon":"8.984337","registeredVoters_par14":"185","signingVoters_par14":"111","registeredVoters_pres14":""},{"signingVoters_pres14":"63","id":"5","center_name":"E.P.BIR NECIB Gouleb","center_name_ar":"م إبتدائية بئر نصيب - قو?ب","registeredVoters_mun18":"202","mun_name_ar":"الرقاب","gov_name_ar":"سيدي بوزيد","gov_name_en":"Sidi Bouzid","lat":"34.744844","lon":"9.755997","registeredVoters_par14":"184","signingVoters_par14":"102","registeredVoters_pres14":"184"},{"signingVoters_pres14":"","id":"6","center_name":"","center_name_ar":"م إبتدائية أو?د مسلم - البرادعة الشمالية","registeredVoters_mun18":"202","mun_name_ar":"البرادعة","gov_name_ar":"المهدية","gov_name_en":"Mahdia","lat":"35.36169983","lon":"10.96990815","registeredVoters_par14":"","signingVoters_par14":"","registeredVoters_pres14":""},{"signingVoters_pres14":"82","id":"7","center_name":"E.P.OUED LEYA K SOGHRA","center_name_ar":"م إبتدائية وادي ?ية القلعة الصغرى","registeredVoters_mun18":"202","mun_name_ar":"القلعة الصغرى","gov_name_ar":"سوسة","gov_name_en":"Sousse","lat":"35.800412","lon":"10.462492","registeredVoters_par14":"186","signingVoters_par14":"133","registeredVoters_pres14":"186"},{"signingVoters_pres14":"102","id":"8","center_name":"E.P.ADISSI TERMIDA","center_name_ar":"م إبتدائية العديسي - ثرمدة","registeredVoters_mun18":"202","mun_name_ar":"الدهماني","gov_name_ar":"الكاف","gov_name_en":"Le Kef","lat":"36.015719","lon":"8.8064527","registeredVoters_par14":"190","signingVoters_par14":"116","registeredVoters_pres14":"190"},{"signingVoters_pres14":"78","id":"9","center_name":"","center_name_ar":"م إبتدائية منطقة حمادي القطار - بئر سعد","registeredVoters_mun18":"203","mun_name_ar":"القطار","gov_name_ar":"قفصة","gov_name_en":"Gafsa","lat":"34.35517","lon":"9.201721","registeredVoters_par14":"","signingVoters_par14":"","registeredVoters_pres14":"167"},{"signingVoters_pres14":"32","id":"10","center_name":"E.P.TOUAHRIA JABESS","center_name_ar":"م إبتدائية الطواهرية - الجباس","registeredVoters_mun18":"203","mun_name_ar":"المكناسي","gov_name_ar":"سيدي بوزيد","gov_name_en":"Sidi Bouzid","lat":"34.732904","lon":"9.675217","registeredVoters_par14":"186","signingVoters_par14":"92","registeredVoters_pres14":"186"},{"signingVoters_pres14":"76","id":"11","center_name":"E.P.OUED GUALLET","center_name_ar":"م إبتدائية وادي ق?ت","registeredVoters_mun18":"203","mun_name_ar":"سيدي علوان","gov_name_ar":"المهدية","gov_name_en":"Mahdia","lat":"35.394592","lon":"10.81677","registeredVoters_par14":"181","signingVoters_par14":"121","registeredVoters_pres14":"180"},{"signingVoters_pres14":"69","id":"12","center_name":"","center_name_ar":"م إبتدائية المعازيل - المنزل","registeredVoters_mun18":"203","mun_name_ar":"الوسلاتية","gov_name_ar":"القيروان","gov_name_en":"Kairouan","lat":"35.71872063","lon":"9.55465135","registeredVoters_par14":"","signingVoters_par14":"","registeredVoters_pres14":"194"},{"signingVoters_pres14":"102","id":"13","center_name":"","center_name_ar":"م إبتدائية ذراع التمار","registeredVoters_mun18":"203","mun_name_ar":"القيروان","gov_name_ar":"القيروان","gov_name_en":"Kairouan","lat":"35.73682805","lon":"10.10224555","registeredVoters_par14":"","signingVoters_par14":"","registeredVoters_pres14":"188"},{"signingVoters_pres14":"103","id":"14","center_name":"E.P.OUED REMAL BENI HAZAM","center_name_ar":"م إبتدائية وادي الرمل - بني حازم","registeredVoters_mun18":"203","mun_name_ar":"مكثر","gov_name_ar":"سليانة","gov_name_en":"Siliana","lat":"35.838014","lon":"9.101062","registeredVoters_par14":"206","signingVoters_par14":"135","registeredVoters_pres14":"206"},{"signingVoters_pres14":"","id":"15","center_name":"E.P.EL ARIMA","center_name_ar":"م إبتدائية العريمة - بومخيلة","registeredVoters_mun18":"203","mun_name_ar":"ماطر","gov_name_ar":"بنزرت","gov_name_en":"Bizerte","lat":"36.994592","lon":"9.608764","registeredVoters_par14":"138","signingVoters_par14":"91","registeredVoters_pres14":""},{"signingVoters_pres14":"","id":"16","center_name":"E.P.RAS EL OUED  SMAR BENI MHIRA OUEST","center_name_ar":"م إبتدائية راس الوادي الصمار - بني مهيرة الغربية","registeredVoters_mun18":"204","mun_name_ar":"الصمار","gov_name_ar":"تطاوين","gov_name_en":"Tataouine","lat":"32.904459","lon":"10.795313","registeredVoters_par14":"193","signingVoters_par14":"128","registeredVoters_pres14":""},{"signingVoters_pres14":"","id":"17","center_name":"E.P.EL MAGHNI RMEDA","center_name_ar":"م إبتدائية مغني رمادة","registeredVoters_mun18":"205","mun_name_ar":"رمادة","gov_name_ar":"تطاوين","gov_name_en":"Tataouine","lat":"32.201888","lon":"10.667844","registeredVoters_par14":"205","signingVoters_par14":"114","registeredVoters_pres14":""},{"signingVoters_pres14":"","id":"18","center_name":"E.P.BIR CHAABANE HMED","center_name_ar":"م إبتدائية بئر شعبان - الحماد","registeredVoters_mun18":"205","mun_name_ar":"تالة","gov_name_ar":"القصرين","gov_name_en":"Kasserine","lat":"35.448143","lon":"8.704579","registeredVoters_par14":"185","signingVoters_par14":"118","registeredVoters_pres14":""},{"signingVoters_pres14":"102","id":"19","center_name":"E.P.OUED LAYA","center_name_ar":"م إبتدائية وادي ?ية - المردين","registeredVoters_mun18":"205","mun_name_ar":"مساكن","gov_name_ar":"سوسة","gov_name_en":"Sousse","lat":"35.772318","lon":"10.507206","registeredVoters_par14":"173","signingVoters_par14":"125","registeredVoters_pres14":"173"},{"signingVoters_pres14":"113","id":"20","center_name":"E.P.SIDI ABDALLAH GZALA","center_name_ar":"م إبتدائية سيدي عبدالله - غزالة","registeredVoters_mun18":"206","mun_name_ar":"بلطة بوعوان","gov_name_ar":"جندوبة","gov_name_en":"Jendouba","lat":"36.636378","lon":"8.880515","registeredVoters_par14":"172","signingVoters_par14":"132","registeredVoters_pres14":"172"},{"signingVoters_pres14":"97","id":"21","center_name":"E.P.EL ADOUWEZ MARZOUK EL FARK - EL KSOUR","center_name_ar":"م إبتدائية ا?دواز - القصور","registeredVoters_mun18":"207","mun_name_ar":"الشرايطية - القصور","gov_name_ar":"القيروان","gov_name_en":"Kairouan","lat":"35.171286","lon":"9.9592964","registeredVoters_par14":"177","signingVoters_par14":"100","registeredVoters_pres14":"177"},{"signingVoters_pres14":"85","id":"22","center_name":"","center_name_ar":"م إبتدائية فرق الصيودة - الفتح","registeredVoters_mun18":"207","mun_name_ar":"بوحجلة","gov_name_ar":"القيروان","gov_name_en":"Kairouan","lat":"35.36948","lon":"10.121645","registeredVoters_par14":"","signingVoters_par14":"","registeredVoters_pres14":"144"},{"signingVoters_pres14":"85","id":"23","center_name":"E.P.EL HOUANI - AOULED CHAMEKH SUD","center_name_ar":"م إبتدائية الهواني - أو?د الشامخ الجنوبية","registeredVoters_mun18":"207","mun_name_ar":"أولاد شامخ","gov_name_ar":"المهدية","gov_name_en":"Mahdia","lat":"35.45436828","lon":"10.31450692","registeredVoters_par14":"199","signingVoters_par14":"122","registeredVoters_pres14":"199"},{"signingVoters_pres14":"","id":"24","center_name":"E.P.GARGARA MEKNINE","center_name_ar":"م إبتدائية قرقارة - المكيمن","registeredVoters_mun18":"207","mun_name_ar":"حيدرة","gov_name_ar":"القصرين","gov_name_en":"Kasserine","lat":"35.61214295","lon":"8.509621961","registeredVoters_par14":"180","signingVoters_par14":"100","registeredVoters_pres14":""},{"signingVoters_pres14":"70","id":"25","center_name":"","center_name_ar":"م إبتدائية أو?د حمودة - الغابات","registeredVoters_mun18":"207","mun_name_ar":"القيروان","gov_name_ar":"القيروان","gov_name_en":"Kairouan","lat":"35.73079533","lon":"10.20736645","registeredVoters_par14":"","signingVoters_par14":"","registeredVoters_pres14":"195"},{"signingVoters_pres14":"137","id":"26","center_name":"E.P.HACI JLIDI Haci Amor","center_name_ar":"م إبتدائية حسي الجليدي - حسي عمر","registeredVoters_mun18":"208","mun_name_ar":"مدنين","gov_name_ar":"مدنين","gov_name_en":"Medenine","lat":"33.359504","lon":"10.587406","registeredVoters_par14":"198","signingVoters_par14":"131","registeredVoters_pres14":"198"},{"signingVoters_pres14":"73","id":"27","center_name":"E.P.WAHA 14 Janvier A.ZARROUK","center_name_ar":"م إبتدائية الواحة 41 جانفي قفصة - سيدي أحمد زروق","registeredVoters_mun18":"208","mun_name_ar":"قفصة","gov_name_ar":"قفصة","gov_name_en":"Gafsa","lat":"34.395634","lon":"8.7570537","registeredVoters_par14":"174","signingVoters_par14":"99","registeredVoters_pres14":"174"},{"signingVoters_pres14":"90","id":"28","center_name":"E.P.DACHRET EL HOJJEJ AROUSSA","center_name_ar":"م إبتدائية دشرة الحجاج - العروسة","registeredVoters_mun18":"208","mun_name_ar":"العروسة","gov_name_ar":"سليانة","gov_name_en":"Siliana","lat":"36.36507","lon":"9.4970288","registeredVoters_par14":"188","signingVoters_par14":"131","registeredVoters_pres14":"188"},{"signingVoters_pres14":"","id":"29","center_name":"E.P.OULED SAADA CHAALAB","center_name_ar":"م إبتدائية أو?د سعادة - شع?ب","registeredVoters_mun18":"209","mun_name_ar":"منزل شاكر","gov_name_ar":"صفاقس","gov_name_en":"Sfax","lat":"35.023333","lon":"10.470777","registeredVoters_par14":"125","signingVoters_par14":"92","registeredVoters_pres14":""},{"signingVoters_pres14":"","id":"30","center_name":"E.P.OULED A. MOULAH garaa hamra","center_name_ar":"م إبتدائية أو?د عبد المو?ه - القرعة الحمراء","registeredVoters_mun18":"209","mun_name_ar":"الرخمات","gov_name_ar":"القصرين","gov_name_en":"Kasserine","lat":"35.154923","lon":"9.1635187","registeredVoters_par14":"121","signingVoters_par14":"91","registeredVoters_pres14":""},{"signingVoters_pres14":"69","id":"31","center_name":"E.P.ZAAROURA KARAA","center_name_ar":"م إبتدائية الزعرورة - القرعة","registeredVoters_mun18":"209","mun_name_ar":"مكثر","gov_name_ar":"سليانة","gov_name_en":"Siliana","lat":"35.890422","lon":"9.212541","registeredVoters_par14":"159","signingVoters_par14":"89","registeredVoters_pres14":"159"},{"signingVoters_pres14":"100","id":"32","center_name":"E.P.HENCHIR ETTALLA AIN SAFSAF","center_name_ar":"م إبتدائية هنشير التلة - عين الصفصاف","registeredVoters_mun18":"209","mun_name_ar":"جبل الوسط","gov_name_ar":"زغوان","gov_name_en":"Zaghouan","lat":"36.495566","lon":"10.111442","registeredVoters_par14":"163","signingVoters_par14":"121","registeredVoters_pres14":"163"},{"signingVoters_pres14":"123","id":"33","center_name":"E.P.O.DEBBAB JADIDA EL MESSREB","center_name_ar":"م إبتدائية او?د دباب الجديدة - المسرب","registeredVoters_mun18":"210","mun_name_ar":"تطاوين الجنوبية/ شنني الدويرات","gov_name_ar":"تطاوين","gov_name_en":"Tataouine","lat":"32.882342","lon":"10.385776","registeredVoters_par14":"187","signingVoters_par14":"112","registeredVoters_pres14":"187"},{"signingVoters_pres14":"123","id":"34","center_name":"E.P.AKAKCHA HEZK","center_name_ar":"م إبتدائية العقاقشـــة - حزق","registeredVoters_mun18":"210","mun_name_ar":"حزق اللوزة","gov_name_ar":"صفاقس","gov_name_en":"Sfax","lat":"35.05249","lon":"10.966666","registeredVoters_par14":"181","signingVoters_par14":"145","registeredVoters_pres14":"181"},{"signingVoters_pres14":"102","id":"35","center_name":"E.P.ERRAFAHIA TERMIDA","center_name_ar":"م إبتدائية الرفاهية - ثرمدة","registeredVoters_mun18":"210","mun_name_ar":"الدهماني","gov_name_ar":"الكاف","gov_name_en":"Le Kef","lat":"36.031945","lon":"8.8391062","registeredVoters_par14":"194","signingVoters_par14":"115","registeredVoters_pres14":"194"},{"signingVoters_pres14":"47","id":"36","center_name":"E.P.BARRAGE NABHANA S.MASAOUD","center_name_ar":"م إبتدائية سد نبهانة - سيدي مسعود","registeredVoters_mun18":"210","mun_name_ar":"السبيخة","gov_name_ar":"القيروان","gov_name_en":"Kairouan","lat":"36.062392","lon":"9.881282","registeredVoters_par14":"148","signingVoters_par14":"51","registeredVoters_pres14":"148"},{"signingVoters_pres14":"94","id":"37","center_name":"E.P.SIDI NASR - BIR ELICH","center_name_ar":"م إبتدائية سيدي نصر - بئر العش","registeredVoters_mun18":"210","mun_name_ar":"قبلاط","gov_name_ar":"باجة","gov_name_en":"Beja","lat":"36.47242936","lon":"9.602755129","registeredVoters_par14":"203","signingVoters_par14":"107","registeredVoters_pres14":"203"},{"signingVoters_pres14":"72","id":"38","center_name":"E.P.HIDAYA  MAJEL NORD","center_name_ar":"م إبتدائية الهدايــة - الماجل الشمالية","registeredVoters_mun18":"211","mun_name_ar":"ماجل بلعباس","gov_name_ar":"القصرين","gov_name_en":"Kasserine","lat":"34.81391767","lon":"8.556160633","registeredVoters_par14":"187","signingVoters_par14":"110","registeredVoters_pres14":"187"},{"signingVoters_pres14":"113","id":"39","center_name":"E.P.GARN HALFAYA","center_name_ar":"م إبتدائية قرن الحلفاية","registeredVoters_mun18":"211","mun_name_ar":"تاجروين","gov_name_ar":"الكاف","gov_name_en":"Le Kef","lat":"36.002851","lon":"8.4989009","registeredVoters_par14":"200","signingVoters_par14":"118","registeredVoters_pres14":"200"},{"signingVoters_pres14":"","id":"40","center_name":"E.P.SIDI MHAMED","center_name_ar":"م إبتدائية سيدي امحمد","registeredVoters_mun18":"213","mun_name_ar":"تالة","gov_name_ar":"القصرين","gov_name_en":"Kasserine","lat":"35.729712","lon":"8.747957","registeredVoters_par14":"179","signingVoters_par14":"89","registeredVoters_pres14":""},{"signingVoters_pres14":"","id":"41","center_name":"E.P.TAOUFIK ESSAHLA","center_name_ar":"م إبتدائية التوفيق - الساهلة","registeredVoters_mun18":"214","mun_name_ar":"سيدي علي بن عون","gov_name_ar":"سيدي بوزيد","gov_name_en":"Sidi Bouzid","lat":"34.808215","lon":"9.1164779","registeredVoters_par14":"145","signingVoters_par14":"78","registeredVoters_pres14":""},{"signingVoters_pres14":"72","id":"42","center_name":"E.P.SAKIA EL HAMRA EL KSAR","center_name_ar":"م إبتدائية الساقية الحمراء - القصر","registeredVoters_mun18":"214","mun_name_ar":"سبيطلة","gov_name_ar":"القصرين","gov_name_en":"Kasserine","lat":"35.185299","lon":"9.1362757","registeredVoters_par14":"192","signingVoters_par14":"96","registeredVoters_pres14":"192"},{"signingVoters_pres14":"68","id":"43","center_name":"E.P.EL KHEIMA  MECHRAK CHAMESS","center_name_ar":"م إبتدائية الخيمة - مشرق الشمس","registeredVoters_mun18":"214","mun_name_ar":"الشرائع مشرق الشمس","gov_name_ar":"القصرين","gov_name_en":"Kasserine","lat":"35.349295","lon":"9.0394565","registeredVoters_par14":"170","signingVoters_par14":"84","registeredVoters_pres14":"170"},{"signingVoters_pres14":"","id":"44","center_name":"E.P.OM FODGHA OULED MAHFOUDHE","center_name_ar":"م إبتدائية أم فدغة - أو?د محفوظ","registeredVoters_mun18":"214","mun_name_ar":"فوسانة","gov_name_ar":"القصرين","gov_name_en":"Kasserine","lat":"35.4022563","lon":"8.563916489","registeredVoters_par14":"186","signingVoters_par14":"107","registeredVoters_pres14":""},{"signingVoters_pres14":"98","id":"45","center_name":"E.P.ZOUAGHA SILIANA JEMA","center_name_ar":"م إبتدائية زواغة سليانة - جامة","registeredVoters_mun18":"214","mun_name_ar":"سليانة","gov_name_ar":"سليانة","gov_name_en":"Siliana","lat":"36.059742","lon":"9.324115","registeredVoters_par14":"201","signingVoters_par14":"131","registeredVoters_pres14":"201"},{"signingVoters_pres14":"79","id":"46","center_name":"E.P.BEN ZEKRI ELARABE","center_name_ar":"م إبتدائية بن زكري - العرب","registeredVoters_mun18":"214","mun_name_ar":"سليانة","gov_name_ar":"سليانة","gov_name_en":"Siliana","lat":"36.137519","lon":"9.467218","registeredVoters_par14":"207","signingVoters_par14":"113","registeredVoters_pres14":"207"},{"signingVoters_pres14":"","id":"47","center_name":"E.P.MARKEZ KEF DERBI gafsa","center_name_ar":"م إبتدائية مركز كاف دربي قفصة","registeredVoters_mun18":"215","mun_name_ar":"قفصة","gov_name_ar":"قفصة","gov_name_en":"Gafsa","lat":"34.618555","lon":"8.5874","registeredVoters_par14":"202","signingVoters_par14":"151","registeredVoters_pres14":""},{"signingVoters_pres14":"","id":"48","center_name":"E.P.HAOUALA ZLAFNA MEHRZA","center_name_ar":"م إبتدائية الز?فنة الحوالة - محرزة","registeredVoters_mun18":"215","mun_name_ar":"جدليان","gov_name_ar":"القصرين","gov_name_en":"Kasserine","lat":"35.529165","lon":"8.8135714","registeredVoters_par14":"180","signingVoters_par14":"115","registeredVoters_pres14":""},{"signingVoters_pres14":"","id":"49","center_name":"","center_name_ar":"م إبتدائية الصدارة - جبل الريحان","registeredVoters_mun18":"215","mun_name_ar":"الوسلاتية","gov_name_ar":"القيروان","gov_name_en":"Kairouan","lat":"35.79319732","lon":"9.643819782","registeredVoters_par14":"","signingVoters_par14":"","registeredVoters_pres14":""},{"signingVoters_pres14":"107","id":"50","center_name":"E.P.SIDI BRAHIM ZAHHAR ECHORFA","center_name_ar":"م إبتدائية سيدي ابراهيم الزهار - الشرفة","registeredVoters_mun18":"215","mun_name_ar":"السبيخة","gov_name_ar":"القيروان","gov_name_en":"Kairouan","lat":"35.838823","lon":"9.999222","registeredVoters_par14":"210","signingVoters_par14":"120","registeredVoters_pres14":"210"},{"signingVoters_pres14":"87","id":"51","center_name":"E.P.RIGHA - GHEZALA","center_name_ar":"م إبتدائية ريغة - غزالة","registeredVoters_mun18":"215","mun_name_ar":"بلطة بوعوان","gov_name_ar":"جندوبة","gov_name_en":"Jendouba","lat":"36.66846","lon":"8.802223","registeredVoters_par14":"193","signingVoters_par14":"128","registeredVoters_pres14":"193"},{"signingVoters_pres14":"73","id":"52","center_name":"","center_name_ar":"م إبتدائية ا?نط?قة القصر - ?لة","registeredVoters_mun18":"217","mun_name_ar":"لالة","gov_name_ar":"قفصة","gov_name_en":"Gafsa","lat":"34.38344318","lon":"8.841395821","registeredVoters_par14":"","signingVoters_par14":"","registeredVoters_pres14":"139"},{"signingVoters_pres14":"91","id":"53","center_name":"E.P.NAJAH OUM LAKSAB","center_name_ar":"م إبتدائية النجاح - أم ا?قصاب","registeredVoters_mun18":"217","mun_name_ar":"ماجل بلعباس","gov_name_ar":"القصرين","gov_name_en":"Kasserine","lat":"34.84285381","lon":"8.361442736","registeredVoters_par14":"196","signingVoters_par14":"140","registeredVoters_pres14":"196"},{"signingVoters_pres14":"68","id":"54","center_name":"E.P.AIN BOUARAR TOUCHA","center_name_ar":"م إبتدائية عين بوعرعـار - توشة","registeredVoters_mun18":"217","mun_name_ar":"العيون","gov_name_ar":"القصرين","gov_name_en":"Kasserine","lat":"35.506173","lon":"8.9443073","registeredVoters_par14":"171","signingVoters_par14":"94","registeredVoters_pres14":"171"},{"signingVoters_pres14":"116","id":"55","center_name":"","center_name_ar":"م إبتدائية ماجل السعايدية - ذراع التمار","registeredVoters_mun18":"217","mun_name_ar":"القيروان","gov_name_ar":"القيروان","gov_name_en":"Kairouan","lat":"35.78591475","lon":"10.07303718","registeredVoters_par14":"","signingVoters_par14":"","registeredVoters_pres14":"200"},{"signingVoters_pres14":"","id":"56","center_name":"","center_name_ar":"م إبتدائية هنشير البقر - القرين","registeredVoters_mun18":"218","mun_name_ar":"العيون","gov_name_ar":"القصرين","gov_name_en":"Kasserine","lat":"35.423802","lon":"8.8896521","registeredVoters_par14":"","signingVoters_par14":"","registeredVoters_pres14":""},{"signingVoters_pres14":"","id":"57","center_name":"E.P.CHAR 2 HAMED","center_name_ar":"م إبتدائية الشـار 2 - الحماد","registeredVoters_mun18":"218","mun_name_ar":"تالة","gov_name_ar":"القصرين","gov_name_en":"Kasserine","lat":"35.552886","lon":"8.671365","registeredVoters_par14":"192","signingVoters_par14":"120","registeredVoters_pres14":""},{"signingVoters_pres14":"","id":"58","center_name":"","center_name_ar":"م إبتدائية أو?د عيار - معروف","registeredVoters_mun18":"218","mun_name_ar":"الوسلاتية","gov_name_ar":"القيروان","gov_name_en":"Kairouan","lat":"36.00480307","lon":"9.785109962","registeredVoters_par14":"","signingVoters_par14":"","registeredVoters_pres14":""},{"signingVoters_pres14":"","id":"59","center_name":"E.P.BIR HAMMOUDA HASSI FRID","center_name_ar":"م إبتدائية بئر حمودة - حاسي الفريد","registeredVoters_mun18":"219","mun_name_ar":"حاسي الفريد","gov_name_ar":"القصرين","gov_name_en":"Kasserine","lat":"35.013869","lon":"8.8960265","registeredVoters_par14":"195","signingVoters_par14":"136","registeredVoters_pres14":""},{"signingVoters_pres14":"103","id":"60","center_name":"E.P.KOUDIAT MOUSSA BOULHIJET","center_name_ar":"م إبتدائية كدية موسى - بولهيجات","registeredVoters_mun18":"219","mun_name_ar":"القصرين","gov_name_ar":"القصرين","gov_name_en":"Kasserine","lat":"35.10058305","lon":"8.726102189","registeredVoters_par14":"205","signingVoters_par14":"114","registeredVoters_pres14":"205"},{"signingVoters_pres14":"115","id":"61","center_name":"E.P.OULED KHADHRA BOUHAYA","center_name_ar":"م إبتدائية أو?د خضرة - بوحية","registeredVoters_mun18":"219","mun_name_ar":"تلابت","gov_name_ar":"القصرين","gov_name_en":"Kasserine","lat":"35.125742","lon":"8.548174","registeredVoters_par14":"193","signingVoters_par14":"134","registeredVoters_pres14":"193"},{"signingVoters_pres14":"","id":"62","center_name":"","center_name_ar":"م إبتدائية العرقوب السرس - المرجى","registeredVoters_mun18":"219","mun_name_ar":"المرجى","gov_name_ar":"الكاف","gov_name_en":"Le Kef","lat":"35.981929","lon":"9.0542601","registeredVoters_par14":"","signingVoters_par14":"","registeredVoters_pres14":""},{"signingVoters_pres14":"87","id":"63","center_name":"","center_name_ar":"م إبتدائية القطيات السند - زانوش","registeredVoters_mun18":"220","mun_name_ar":"زانوش","gov_name_ar":"قفصة","gov_name_en":"Gafsa","lat":"34.485994","lon":"8.9936963","registeredVoters_par14":"","signingVoters_par14":"","registeredVoters_pres14":"203"},{"signingVoters_pres14":"80","id":"64","center_name":"E.P.BOUGHALLABA TAJEROUINE NORD","center_name_ar":"م إبتدائية بوغ?بة - تاجروين الشمالية","registeredVoters_mun18":"220","mun_name_ar":"تاجروين","gov_name_ar":"الكاف","gov_name_en":"Le Kef","lat":"35.921088","lon":"8.5776056","registeredVoters_par14":"202","signingVoters_par14":"104","registeredVoters_pres14":"202"},{"signingVoters_pres14":"120","id":"65","center_name":"E.P.KHANGUET EL ATACH-ELHOD","center_name_ar":"م إبتدائية خنقة العطش - الحوض","registeredVoters_mun18":"220","mun_name_ar":"تاجروين","gov_name_ar":"الكاف","gov_name_en":"Le Kef","lat":"35.943729","lon":"8.7034848","registeredVoters_par14":"204","signingVoters_par14":"129","registeredVoters_pres14":"204"},{"signingVoters_pres14":"","id":"66","center_name":"","center_name_ar":"م إبتدائية برج السوقي - القصيبي","registeredVoters_mun18":"220","mun_name_ar":"الخليدية","gov_name_ar":"بن عروس","gov_name_en":"Ben Arous","lat":"36.572353","lon":"10.24601","registeredVoters_par14":"","signingVoters_par14":"","registeredVoters_pres14":""},{"signingVoters_pres14":"106","id":"67","center_name":"E.P.BENI BRAHIM - GHEZELA","center_name_ar":"م إبتدائية بني ابراهيم - ركب","registeredVoters_mun18":"220","mun_name_ar":"غزالة","gov_name_ar":"بنزرت","gov_name_en":"Bizerte","lat":"37.017834","lon":"9.447922","registeredVoters_par14":"204","signingVoters_par14":"130","registeredVoters_pres14":"204"},{"signingVoters_pres14":"111","id":"68","center_name":"E.P.KSAR JOUAMAA RAHALA","center_name_ar":"م إبتدائية قصر الجوامع - رحالة","registeredVoters_mun18":"221","mun_name_ar":"بني خداش","gov_name_ar":"مدنين","gov_name_en":"Medenine","lat":"33.25419","lon":"10.254092","registeredVoters_par14":"186","signingVoters_par14":"107","registeredVoters_pres14":"186"},{"signingVoters_pres14":"","id":"69","center_name":"E.P.OUED ENNAKHLA - ESKHIRA","center_name_ar":"م إبتدائية وادي النخلة - الصخيرة","registeredVoters_mun18":"221","mun_name_ar":"الصخيرة","gov_name_ar":"صفاقس","gov_name_en":"Sfax","lat":"34.34712","lon":"10.004781","registeredVoters_par14":"216","signingVoters_par14":"145","registeredVoters_pres14":""},{"signingVoters_pres14":"103","id":"70","center_name":"E.P.KHAMSA THNAYA TLIL SALHI","center_name_ar":"م إبتدائية خمسة ثناية - تليل الصالحي","registeredVoters_mun18":"221","mun_name_ar":"العمايم","gov_name_ar":"زغوان","gov_name_en":"Zaghouan","lat":"36.25597856","lon":"9.636850213","registeredVoters_par14":"227","signingVoters_par14":"127","registeredVoters_pres14":"227"},{"signingVoters_pres14":"133","id":"71","center_name":"E.P.OUED EL KHIL GHOMRASSEN","center_name_ar":"م إبتدائية وادي الخيل غمراسن","registeredVoters_mun18":"222","mun_name_ar":"غمراسن","gov_name_ar":"تطاوين","gov_name_en":"Tataouine","lat":"33.161945","lon":"10.350303","registeredVoters_par14":"195","signingVoters_par14":"114","registeredVoters_pres14":"195"},{"signingVoters_pres14":"165","id":"72","center_name":"E.P.JOUAMAIA - SAYADA SUD","center_name_ar":"م إبتدائية الجوامعية - صيادة الجنوبية","registeredVoters_mun18":"222","mun_name_ar":"العلا","gov_name_ar":"القيروان","gov_name_en":"Kairouan","lat":"35.61279744","lon":"9.407950542","registeredVoters_par14":"185","signingVoters_par14":"96","registeredVoters_pres14":"185"},{"signingVoters_pres14":"","id":"73","center_name":"","center_name_ar":"م إبتدائية التريشة - ا?بار الشرقية","registeredVoters_mun18":"222","mun_name_ar":"المرجى","gov_name_ar":"الكاف","gov_name_en":"Le Kef","lat":"36.076935","lon":"9.1321688","registeredVoters_par14":"","signingVoters_par14":"","registeredVoters_pres14":""},{"signingVoters_pres14":"75","id":"74","center_name":"E.P.AKHOUET MINE","center_name_ar":"م إبتدائية منجم ا?خوات","registeredVoters_mun18":"222","mun_name_ar":"قعفور","gov_name_ar":"سليانة","gov_name_en":"Siliana","lat":"36.274728","lon":"9.2414672","registeredVoters_par14":"229","signingVoters_par14":"96","registeredVoters_pres14":"229"},{"signingVoters_pres14":"136","id":"75","center_name":"E.P.ELMOGHRA  ZAOUIET JEDIDI","center_name_ar":"م إبتدائية المغرة - زاوية الجديدي","registeredVoters_mun18":"222","mun_name_ar":"زاوية الجديدي","gov_name_ar":"نابل","gov_name_en":"Nabeul","lat":"36.650671","lon":"10.555028","registeredVoters_par14":"191","signingVoters_par14":"150","registeredVoters_pres14":"191"},{"signingVoters_pres14":"131","id":"76","center_name":"E.P.MEHEMLA","center_name_ar":"م إبتدائية المهاملة","registeredVoters_mun18":"223","mun_name_ar":"منزل الحبيب","gov_name_ar":"قابس","gov_name_en":"Gabes","lat":"34.20764528","lon":"9.466319679","registeredVoters_par14":"226","signingVoters_par14":"99","registeredVoters_pres14":"226"},{"signingVoters_pres14":"","id":"77","center_name":"E.P.EL MGHIDHIA 2 - SIDI Med","center_name_ar":"م إبتدائية المغذية2 - سيدي محمد","registeredVoters_mun18":"223","mun_name_ar":"الصخيرة","gov_name_ar":"صفاقس","gov_name_en":"Sfax","lat":"34.42971","lon":"10.013841","registeredVoters_par14":"204","signingVoters_par14":"119","registeredVoters_pres14":""},{"signingVoters_pres14":"91","id":"78","center_name":"E.P.BOUSLIM","center_name_ar":"م إبتدائية بوسليم","registeredVoters_mun18":"223","mun_name_ar":"الناظور - سيدي علي","gov_name_ar":"صفاقس","gov_name_en":"Sfax","lat":"34.703653","lon":"10.282997","registeredVoters_par14":"188","signingVoters_par14":"109","registeredVoters_pres14":"188"},{"signingVoters_pres14":"","id":"79","center_name":"E.P.EL BALAD JEDLIANE AIN OM EJDOUR","center_name_ar":"م إبتدائية البلد جدليان - عين أم الجدور","registeredVoters_mun18":"223","mun_name_ar":"جدليان","gov_name_ar":"القصرين","gov_name_en":"Kasserine","lat":"35.570453","lon":"8.8796613","registeredVoters_par14":"140","signingVoters_par14":"83","registeredVoters_pres14":""},{"signingVoters_pres14":"83","id":"80","center_name":"E.P.CHETATLA","center_name_ar":"م إبتدائية الشتاتلة","registeredVoters_mun18":"223","mun_name_ar":"بهرة","gov_name_ar":"الكاف","gov_name_en":"Le Kef","lat":"36.36917","lon":"8.9687353","registeredVoters_par14":"191","signingVoters_par14":"91","registeredVoters_pres14":"191"},{"signingVoters_pres14":"","id":"81","center_name":"","center_name_ar":"م إبتدائية العبابسة - سيدي سالم","registeredVoters_mun18":"223","mun_name_ar":"مرناق","gov_name_ar":"بن عروس","gov_name_en":"Ben Arous","lat":"36.520693","lon":"10.301016","registeredVoters_par14":"","signingVoters_par14":"","registeredVoters_pres14":""},{"signingVoters_pres14":"","id":"82","center_name":"E.P.HMADA F. CHIBANI SKHIRA","center_name_ar":"م إبتدائية حمادة فندق الشيباني - الصخيرة","registeredVoters_mun18":"224","mun_name_ar":"الصخيرة","gov_name_ar":"صفاقس","gov_name_en":"Sfax","lat":"34.356422","lon":"10.115483","registeredVoters_par14":"223","signingVoters_par14":"175","registeredVoters_pres14":""},{"signingVoters_pres14":"85","id":"83","center_name":"E.P.KHEROUA EL ABRAJ","center_name_ar":"م إبتدائية الخروع - ا?براج","registeredVoters_mun18":"224","mun_name_ar":"الناظور - سيدي علي","gov_name_ar":"صفاقس","gov_name_en":"Sfax","lat":"34.616067","lon":"10.211087","registeredVoters_par14":"148","signingVoters_par14":"96","registeredVoters_pres14":"148"},{"signingVoters_pres14":"68","id":"84","center_name":"E.P.ELHJARA 2","center_name_ar":"م إبتدائية الحجارة 2","registeredVoters_mun18":"224","mun_name_ar":"الحنشة","gov_name_ar":"صفاقس","gov_name_en":"Sfax","lat":"35.242359","lon":"10.636523","registeredVoters_par14":"178","signingVoters_par14":"109","registeredVoters_pres14":"200"},{"signingVoters_pres14":"97","id":"85","center_name":"E.P.JALLEB ANCIENNE EJMILETTE","center_name_ar":"م إبتدائية ج?ب القديمة - الجمي?ت","registeredVoters_mun18":"224","mun_name_ar":"الحبابسة","gov_name_ar":"سليانة","gov_name_en":"Siliana","lat":"35.62354435","lon":"9.280645734","registeredVoters_par14":"217","signingVoters_par14":"131","registeredVoters_pres14":"217"},{"signingVoters_pres14":"","id":"86","center_name":"","center_name_ar":"م إبتدائية سيدي سالم القارصي","registeredVoters_mun18":"224","mun_name_ar":"مرناق","gov_name_ar":"بن عروس","gov_name_en":"Ben Arous","lat":"36.494977","lon":"10.301926","registeredVoters_par14":"","signingVoters_par14":"","registeredVoters_pres14":""},{"signingVoters_pres14":"107","id":"87","center_name":"E.P. CITE AOUIN CHAREB ERRAJEL","center_name_ar":"م إبتدائية حي عوين - شارب الراجل","registeredVoters_mun18":"225","mun_name_ar":"بن قردان","gov_name_ar":"مدنين","gov_name_en":"Medenine","lat":"33.17041966","lon":"11.18377396","registeredVoters_par14":"213","signingVoters_par14":"115","registeredVoters_pres14":"213"},{"signingVoters_pres14":"","id":"88","center_name":"E.P.TAOUJOUT TAMZERT","center_name_ar":"م إبتدائية تاوجوت - طمزرط","registeredVoters_mun18":"225","mun_name_ar":"مطماطة","gov_name_ar":"قابس","gov_name_en":"Gabes","lat":"33.566603","lon":"9.8633199","registeredVoters_par14":"177","signingVoters_par14":"116","registeredVoters_pres14":""},{"signingVoters_pres14":"","id":"89","center_name":"E.P.HENCHIR RMATH - EL KHADRA","center_name_ar":"م إبتدائية هنشير الرمث - الخضراء","registeredVoters_mun18":"225","mun_name_ar":"الصخيرة","gov_name_ar":"صفاقس","gov_name_en":"Sfax","lat":"34.272353","lon":"9.7997567","registeredVoters_par14":"194","signingVoters_par14":"142","registeredVoters_pres14":""},{"signingVoters_pres14":"","id":"90","center_name":"E.P.NAOUEL NORD","center_name_ar":"م إبتدائية نوال الشمالية - نوال","registeredVoters_mun18":"225","mun_name_ar":"الصخيرة","gov_name_ar":"صفاقس","gov_name_en":"Sfax","lat":"34.437906","lon":"9.9502942","registeredVoters_par14":"181","signingVoters_par14":"109","registeredVoters_pres14":""},{"signingVoters_pres14":"109","id":"91","center_name":"E.P.OM CHOUCHA NORD SDIRET","center_name_ar":"م إبتدائية أم الشوشة الشمالية - السديرات الشمالية","registeredVoters_mun18":"225","mun_name_ar":"بئر علي بن خليفة","gov_name_ar":"صفاقس","gov_name_en":"Sfax","lat":"34.711817","lon":"10.139114","registeredVoters_par14":"205","signingVoters_par14":"120","registeredVoters_pres14":"205"},{"signingVoters_pres14":"71","id":"92","center_name":"","center_name_ar":"م إبتدائية بئر براقة - جهينة الجنوبية","registeredVoters_mun18":"225","mun_name_ar":"جهينة","gov_name_ar":"القيروان","gov_name_en":"Kairouan","lat":"35.325547","lon":"9.9862739","registeredVoters_par14":"","signingVoters_par14":"","registeredVoters_pres14":"136"},{"signingVoters_pres14":"117","id":"93","center_name":"","center_name_ar":"م إبتدائية بن ونيس - بئر مسكين","registeredVoters_mun18":"225","mun_name_ar":"بوحجلة","gov_name_ar":"القيروان","gov_name_en":"Kairouan","lat":"35.47613","lon":"10.05361","registeredVoters_par14":"","signingVoters_par14":"","registeredVoters_pres14":"193"},{"signingVoters_pres14":"116","id":"94","center_name":"E.P.OULED TALEB BORJ MASSOUDI SUD","center_name_ar":"م إبتدائية أو?د طالب - برج مسعودي الغربية","registeredVoters_mun18":"225","mun_name_ar":"الكريب","gov_name_ar":"سليانة","gov_name_en":"Siliana","lat":"36.270601","lon":"8.9982628","registeredVoters_par14":"200","signingVoters_par14":"140","registeredVoters_pres14":"200"},{"signingVoters_pres14":"60","id":"95","center_name":"","center_name_ar":"م إبتدائية العرقوب ا?حرش طريق الطويرف - م?لة","registeredVoters_mun18":"225","mun_name_ar":"الطويرف","gov_name_ar":"الكاف","gov_name_en":"Le Kef","lat":"36.378824","lon":"8.7086963","registeredVoters_par14":"","signingVoters_par14":"","registeredVoters_pres14":"211"},{"signingVoters_pres14":"98","id":"96","center_name":"E.P.TAREF - EL ARAB","center_name_ar":"م إبتدائية الطارف - العرب","registeredVoters_mun18":"225","mun_name_ar":"غزالة","gov_name_ar":"بنزرت","gov_name_en":"Bizerte","lat":"37.174035","lon":"9.569378","registeredVoters_par14":"207","signingVoters_par14":"128","registeredVoters_pres14":"207"},{"signingVoters_pres14":"82","id":"97","center_name":"E.P.EZZOHRA NLLE TATAOUINE","center_name_ar":"م إبتدائية الزهرة الجديدة تطاوين","registeredVoters_mun18":"226","mun_name_ar":"تطاوين","gov_name_ar":"تطاوين","gov_name_en":"Tataouine","lat":"32.817198","lon":"10.569739","registeredVoters_par14":"206","signingVoters_par14":"108","registeredVoters_pres14":"206"},{"signingVoters_pres14":"118","id":"98","center_name":"E.P.OUED AMGHAR EL MAY","center_name_ar":"م إبتدائية وادي أمغار - الماي","registeredVoters_mun18":"226","mun_name_ar":"ميدون","gov_name_ar":"مدنين","gov_name_en":"Medenine","lat":"33.784793","lon":"10.867805","registeredVoters_par14":"197","signingVoters_par14":"113","registeredVoters_pres14":"197"},{"signingVoters_pres14":"","id":"99","center_name":"","center_name_ar":"م إبتدائية أو?د الحاج السعد - بولذياب","registeredVoters_mun18":"226","mun_name_ar":"عقارب","gov_name_ar":"صفاقس","gov_name_en":"Sfax","lat":"34.771688","lon":"10.506992","registeredVoters_par14":"","signingVoters_par14":"","registeredVoters_pres14":""},{"signingVoters_pres14":"113","id":"100","center_name":"E.P.HAJ KACEM 3","center_name_ar":"م إبتدائية الحاج قاسم 3","registeredVoters_mun18":"226","mun_name_ar":"منزل شاكر","gov_name_ar":"صفاقس","gov_name_en":"Sfax","lat":"34.875248","lon":"10.269019","registeredVoters_par14":"201","signingVoters_par14":"153","registeredVoters_pres14":"201"},{"signingVoters_pres14":"83","id":"101","center_name":"E.P.BEN ZEKRI YAHBOU ELARAB","center_name_ar":"م إبتدائية بن زكري يهبـو - العرب","registeredVoters_mun18":"226","mun_name_ar":"سليانة","gov_name_ar":"سليانة","gov_name_en":"Siliana","lat":"36.091485","lon":"9.44778","registeredVoters_par14":"211","signingVoters_par14":"117","registeredVoters_pres14":"211"},{"signingVoters_pres14":"","id":"102","center_name":"E.P.EL BAGHOURA - BOULAABA","center_name_ar":"م إبتدائية بغوره - بولعابة","registeredVoters_mun18":"226","mun_name_ar":"بلطة بوعوان","gov_name_ar":"جندوبة","gov_name_en":"Jendouba","lat":"36.646495","lon":"8.784653","registeredVoters_par14":"218","signingVoters_par14":"137","registeredVoters_pres14":""},{"signingVoters_pres14":"147","id":"103","center_name":"E.P.OUEJEH ELGHA El Benia","center_name_ar":"م إبتدائية وجه اللغاء - البنية","registeredVoters_mun18":"227","mun_name_ar":"بني خداش","gov_name_ar":"مدنين","gov_name_en":"Medenine","lat":"33.209025","lon":"10.186601","registeredVoters_par14":"195","signingVoters_par14":"142","registeredVoters_pres14":"195"},{"signingVoters_pres14":"","id":"104","center_name":"","center_name_ar":"م إبتدائية بئر عباس - تنيور","registeredVoters_mun18":"227","mun_name_ar":"شيحية","gov_name_ar":"صفاقس","gov_name_en":"Sfax","lat":"34.869216","lon":"10.710633","registeredVoters_par14":"","signingVoters_par14":"","registeredVoters_pres14":""},{"signingVoters_pres14":"87","id":"105","center_name":"E.P.OUED HAMOUDA ZGHABNA","center_name_ar":"م إبتدائية وادي حمودة - الزغابنة","registeredVoters_mun18":"227","mun_name_ar":"الجم","gov_name_ar":"المهدية","gov_name_en":"Mahdia","lat":"35.268931","lon":"10.756734","registeredVoters_par14":"230","signingVoters_par14":"134","registeredVoters_pres14":"230"},{"signingVoters_pres14":"37","id":"106","center_name":"","center_name_ar":"م إبتدائية ا?زدهار - جهينة الشمالية","registeredVoters_mun18":"227","mun_name_ar":"جهينة","gov_name_ar":"القيروان","gov_name_en":"Kairouan","lat":"35.353659","lon":"9.9264992","registeredVoters_par14":"","signingVoters_par14":"","registeredVoters_pres14":"144"},{"signingVoters_pres14":"103","id":"107","center_name":"E.P.EL AZIB KROUSSIA CENTRE","center_name_ar":"م إبتدائية العزيب - كروسية المركزية","registeredVoters_mun18":"227","mun_name_ar":"سيدي الهاني","gov_name_ar":"سوسة","gov_name_en":"Sousse","lat":"35.741051","lon":"10.355827","registeredVoters_par14":"182","signingVoters_par14":"132","registeredVoters_pres14":"182"},{"signingVoters_pres14":"130","id":"108","center_name":"E.P.BOUJRIDA DIR EL KEF","center_name_ar":"م إبتدائية بوجريدة - دير الكاف","registeredVoters_mun18":"227","mun_name_ar":"زعفران دير الكاف","gov_name_ar":"الكاف","gov_name_en":"Le Kef","lat":"36.19053","lon":"8.8162534","registeredVoters_par14":"209","signingVoters_par14":"143","registeredVoters_pres14":"209"},{"signingVoters_pres14":"66","id":"109","center_name":"E.P.ENNEMAIRIA SILIANA EL GABEL","center_name_ar":"م إبتدائية النمايرية سليانة - القابل","registeredVoters_mun18":"228","mun_name_ar":"سيدي مرشد","gov_name_ar":"سليانة","gov_name_en":"Siliana","lat":"35.953497","lon":"9.3922505","registeredVoters_par14":"214","signingVoters_par14":"104","registeredVoters_pres14":"214"},{"signingVoters_pres14":"157","id":"110","center_name":"E.P.ALAMET HASSI AMOR DARGHOULIA","center_name_ar":"م إبتدائية ع?ّمات حسي عمر - الدرغولية","registeredVoters_mun18":"229","mun_name_ar":"مدنين","gov_name_ar":"مدنين","gov_name_en":"Medenine","lat":"33.365504","lon":"10.6484","registeredVoters_par14":"213","signingVoters_par14":"133","registeredVoters_pres14":"213"},{"signingVoters_pres14":"68","id":"111","center_name":"E.P.GARAAT EL ATACH SBITLA","center_name_ar":"م إبتدائية قرعة العطش سبيطلة - الشرايع","registeredVoters_mun18":"229","mun_name_ar":"الشرائع مشرق الشمس","gov_name_ar":"القصرين","gov_name_en":"Kasserine","lat":"35.276361","lon":"8.9275577","registeredVoters_par14":"208","signingVoters_par14":"118","registeredVoters_pres14":"209"},{"signingVoters_pres14":"113","id":"112","center_name":"E.P.DHRAA EL BATTOUM-FERCHEN","center_name_ar":"م إبتدائية ذراع البطوم - فرشان","registeredVoters_mun18":"229","mun_name_ar":"ساقية سيدي يوسف","gov_name_ar":"الكاف","gov_name_en":"Le Kef","lat":"36.177711","lon":"8.3907736","registeredVoters_par14":"231","signingVoters_par14":"135","registeredVoters_pres14":"231"},{"signingVoters_pres14":"97","id":"113","center_name":"E.P.AIN BOUSLAMA ERRMIL","center_name_ar":"م إبتدائية عين بوس?مة - الرّميــل","registeredVoters_mun18":"229","mun_name_ar":"العروسة","gov_name_ar":"سليانة","gov_name_en":"Siliana","lat":"36.339738","lon":"9.5737359","registeredVoters_par14":"214","signingVoters_par14":"118","registeredVoters_pres14":"214"},{"signingVoters_pres14":"79","id":"114","center_name":"E.P.DERBI HNIA","center_name_ar":"م إبتدائية دربي - الحنية","registeredVoters_mun18":"230","mun_name_ar":"أولاد حفوز","gov_name_ar":"سيدي بوزيد","gov_name_en":"Sidi Bouzid","lat":"35.114589","lon":"9.7817384","registeredVoters_par14":"198","signingVoters_par14":"101","registeredVoters_pres14":"198"},{"signingVoters_pres14":"84","id":"115","center_name":"E.P.OULED SAAD   ESSaida EST","center_name_ar":"م إبتدائية او?د سعد -الخشم الشرقيّة","registeredVoters_mun18":"231","mun_name_ar":"سعيدة","gov_name_ar":"سيدي بوزيد","gov_name_en":"Sidi Bouzid","lat":"34.980149","lon":"9.986507","registeredVoters_par14":"192","signingVoters_par14":"115","registeredVoters_pres14":"192"},{"signingVoters_pres14":"100","id":"116","center_name":"E.P.CHEHDA JIMLA","center_name_ar":"م إبتدائية شهدة - جيملة","registeredVoters_mun18":"231","mun_name_ar":"زغوان","gov_name_ar":"زغوان","gov_name_en":"Zaghouan","lat":"36.45886","lon":"10.233962","registeredVoters_par14":"217","signingVoters_par14":"148","registeredVoters_pres14":"217"},{"signingVoters_pres14":"","id":"117","center_name":"","center_name_ar":"م إبتدائية السواقي - الحمام","registeredVoters_mun18":"231","mun_name_ar":"الناظور عين الصبح","gov_name_ar":"جندوبة","gov_name_en":"Jendouba","lat":"36.86751296","lon":"8.82804519","registeredVoters_par14":"","signingVoters_par14":"","registeredVoters_pres14":""},{"signingVoters_pres14":"84","id":"118","center_name":"E.P.HENCHIR ZEBDA OUARDENE SUD","center_name_ar":"م إبتدائية هنشير الزبدة - ودران الجنوبية","registeredVoters_mun18":"232","mun_name_ar":"بئر علي بن خليفة","gov_name_ar":"صفاقس","gov_name_en":"Sfax","lat":"34.603147","lon":"9.9376911","registeredVoters_par14":"188","signingVoters_par14":"117","registeredVoters_pres14":"188"},{"signingVoters_pres14":"115","id":"119","center_name":"E.P.EL FAOUZ - AOULED CHAMEKH SUD","center_name_ar":"م إبتدائية الفوز - أو?د الشامخ الجنوبية","registeredVoters_mun18":"232","mun_name_ar":"أولاد شامخ","gov_name_ar":"المهدية","gov_name_en":"Mahdia","lat":"35.49665414","lon":"10.31903755","registeredVoters_par14":"203","signingVoters_par14":"135","registeredVoters_pres14":"203"},{"signingVoters_pres14":"141","id":"120","center_name":"","center_name_ar":"م إبتدائية عين النشمة - جرادو","registeredVoters_mun18":"232","mun_name_ar":"ساقية سيدي يوسف","gov_name_ar":"الكاف","gov_name_en":"Le Kef","lat":"36.304763","lon":"8.4628382","registeredVoters_par14":"","signingVoters_par14":"","registeredVoters_pres14":"235"},{"signingVoters_pres14":"106","id":"121","center_name":"","center_name_ar":"م إبتدائية حمام طرزة - طرزة الجنوبية","registeredVoters_mun18":"233","mun_name_ar":"عين البيضاء","gov_name_ar":"القيروان","gov_name_en":"Kairouan","lat":"35.59424486","lon":"9.638265974","registeredVoters_par14":"","signingVoters_par14":"","registeredVoters_pres14":"206"},{"signingVoters_pres14":"64","id":"122","center_name":"","center_name_ar":"م إبتدائية بئر غرزان - جبل الريحان","registeredVoters_mun18":"233","mun_name_ar":"الوسلاتية","gov_name_ar":"القيروان","gov_name_en":"Kairouan","lat":"35.77693158","lon":"9.672450566","registeredVoters_par14":"","signingVoters_par14":"","registeredVoters_pres14":"208"},{"signingVoters_pres14":"130","id":"123","center_name":"E.P.HESSI JERBI OUEST","center_name_ar":"م إبتدائية حسي الجربي الغربي - حسي الجربي","registeredVoters_mun18":"234","mun_name_ar":"جرجيس الشمالية","gov_name_ar":"مدنين","gov_name_en":"Medenine","lat":"33.615934","lon":"11.010886","registeredVoters_par14":"201","signingVoters_par14":"143","registeredVoters_pres14":"201"},{"signingVoters_pres14":"","id":"124","center_name":"E.P.SBIH SUD - EL KHADRA","center_name_ar":"م إبتدائية صبيح الجنوبية - الخضراء","registeredVoters_mun18":"234","mun_name_ar":"الصخيرة","gov_name_ar":"صفاقس","gov_name_en":"Sfax","lat":"34.242545","lon":"9.8921092","registeredVoters_par14":"186","signingVoters_par14":"113","registeredVoters_pres14":""},{"signingVoters_pres14":"78","id":"125","center_name":"E.P.HADDEJE BOU HADMA","center_name_ar":"م إبتدائية هداج 1- بوهدمة","registeredVoters_mun18":"234","mun_name_ar":"مزونة","gov_name_ar":"سيدي بوزيد","gov_name_en":"Sidi Bouzid","lat":"34.431315","lon":"9.5400521","registeredVoters_par14":"182","signingVoters_par14":"132","registeredVoters_pres14":"182"},{"signingVoters_pres14":"129","id":"126","center_name":"E.P.EL MRITBA MENZEL ELGAMOUDI","center_name_ar":"م إبتدائية المريطبة - منزل القمودي","registeredVoters_mun18":"234","mun_name_ar":"سيدي عيش","gov_name_ar":"قفصة","gov_name_en":"Gafsa","lat":"34.594853","lon":"8.9265652","registeredVoters_par14":"197","signingVoters_par14":"158","registeredVoters_pres14":"197"},{"signingVoters_pres14":"68","id":"127","center_name":"E.P.MARJ EL MOKADEM","center_name_ar":"م إبتدائية مرج مقدم","registeredVoters_mun18":"234","mun_name_ar":"سليانة","gov_name_ar":"سليانة","gov_name_en":"Siliana","lat":"35.950827","lon":"9.2912019","registeredVoters_par14":"214","signingVoters_par14":"87","registeredVoters_pres14":"214"},{"signingVoters_pres14":"","id":"128","center_name":"","center_name_ar":"م إبتدائية بئر حدي - السرس الشمالية","registeredVoters_mun18":"235","mun_name_ar":"السرس","gov_name_ar":"الكاف","gov_name_en":"Le Kef","lat":"36.120033","lon":"9.0136664","registeredVoters_par14":"","signingVoters_par14":"","registeredVoters_pres14":""},{"signingVoters_pres14":"88","id":"129","center_name":"E.P.AOULED SAII Sidi boubaker","center_name_ar":"م إبتدائية أو?اد السّاعي - سيدي بو بكر","registeredVoters_mun18":"236","mun_name_ar":"سيدي بوبكر","gov_name_ar":"قفصة","gov_name_en":"Gafsa","lat":"34.636271","lon":"8.4291583","registeredVoters_par14":"179","signingVoters_par14":"101","registeredVoters_pres14":"179"},{"signingVoters_pres14":"95","id":"130","center_name":"E.P.HENCHIR EL KHEDAM REDHAA","center_name_ar":"م إبتدائية هنشير الخدم - الرضاع","registeredVoters_mun18":"236","mun_name_ar":"الرقاب","gov_name_ar":"سيدي بوزيد","gov_name_en":"Sidi Bouzid","lat":"34.673489","lon":"9.818181","registeredVoters_par14":"176","signingVoters_par14":"125","registeredVoters_pres14":"176"},{"signingVoters_pres14":"72","id":"131","center_name":"E.P.ELMREGHMA - OUED MLIZ OEST","center_name_ar":"م إبتدائية المراغمة - وادي مليز الغربية","registeredVoters_mun18":"236","mun_name_ar":"وادي مليز","gov_name_ar":"جندوبة","gov_name_en":"Jendouba","lat":"36.404639","lon":"8.514881","registeredVoters_par14":"185","signingVoters_par14":"103","registeredVoters_pres14":"185"},{"signingVoters_pres14":"","id":"132","center_name":"","center_name_ar":"م إبتدائية سيدي معاوية قليبية - أزمور","registeredVoters_mun18":"236","mun_name_ar":"أزمور","gov_name_ar":"نابل","gov_name_en":"Nabeul","lat":"36.915383","lon":"10.979882","registeredVoters_par14":"","signingVoters_par14":"","registeredVoters_pres14":""},{"signingVoters_pres14":"151","id":"133","center_name":"E.P.CHEAB ERREBAIA BOUGHRARA","center_name_ar":"م إبتدائية شعاب الربايع - بوغرارة","registeredVoters_mun18":"237","mun_name_ar":"بوغرارة","gov_name_ar":"مدنين","gov_name_en":"Medenine","lat":"33.510927","lon":"10.656923","registeredVoters_par14":"219","signingVoters_par14":"148","registeredVoters_pres14":"219"},{"signingVoters_pres14":"197","id":"134","center_name":"E.P.SEFIA M'HAMLA","center_name_ar":"م إبتدائية السفيــــــة - المهاملة","registeredVoters_mun18":"237","mun_name_ar":"منزل الحبيب","gov_name_ar":"قابس","gov_name_en":"Gabes","lat":"34.15670115","lon":"9.428725348","registeredVoters_par14":"212","signingVoters_par14":"158","registeredVoters_pres14":"212"},{"signingVoters_pres14":"","id":"135","center_name":"E.P.OUEDI EL KRAM IBRAHIM ZAHAR","center_name_ar":"م إبتدائية وادي الكرم - إبراهيم الزهار","registeredVoters_mun18":"237","mun_name_ar":"سبيبة","gov_name_ar":"القصرين","gov_name_en":"Kasserine","lat":"35.51943863","lon":"9.157240641","registeredVoters_par14":"174","signingVoters_par14":"119","registeredVoters_pres14":""},{"signingVoters_pres14":"","id":"136","center_name":"E.P.MAZRAA NEJI BORJ SAIDANE","center_name_ar":"م إبتدائية مزرع ناجي - برج سعيدان","registeredVoters_mun18":"238","mun_name_ar":"قبلي","gov_name_ar":"قبلي","gov_name_en":"Kebili","lat":"33.790721","lon":"9.3067942","registeredVoters_par14":"232","signingVoters_par14":"153","registeredVoters_pres14":""},{"signingVoters_pres14":"99","id":"137","center_name":"","center_name_ar":"م إبتدائية السوالمية - بوحجلة المركز","registeredVoters_mun18":"238","mun_name_ar":"بوحجلة","gov_name_ar":"القيروان","gov_name_en":"Kairouan","lat":"35.376573","lon":"10.061206","registeredVoters_par14":"","signingVoters_par14":"","registeredVoters_pres14":"200"},{"signingVoters_pres14":"","id":"138","center_name":"E.P.AFRINA AYOUN","center_name_ar":"م إبتدائية أفرينة - العيون","registeredVoters_mun18":"238","mun_name_ar":"العيون","gov_name_ar":"القصرين","gov_name_en":"Kasserine","lat":"35.507334","lon":"8.8512327","registeredVoters_par14":"128","signingVoters_par14":"77","registeredVoters_pres14":""},{"signingVoters_pres14":"122","id":"139","center_name":"","center_name_ar":"م إبتدائية خيط الوادي 2","registeredVoters_mun18":"238","mun_name_ar":"حفوز","gov_name_ar":"القيروان","gov_name_en":"Kairouan","lat":"35.73082222","lon":"9.646760333","registeredVoters_par14":"","signingVoters_par14":"","registeredVoters_pres14":"213"},{"signingVoters_pres14":"309","id":"140","center_name":"E.P.MUTHUL -SAADA","center_name_ar":"م إبتدائية نهج ابن خلدون - جندوبة","registeredVoters_mun18":"238","mun_name_ar":"جندوبة","gov_name_ar":"جندوبة","gov_name_en":"Jendouba","lat":"36.42262","lon":"8.760354","registeredVoters_par14":"469","signingVoters_par14":"370","registeredVoters_pres14":"469"},{"signingVoters_pres14":"77","id":"141","center_name":"E.P.HENCHIR GHEZELA","center_name_ar":"م إبتدائية هنشير غزالة - حشاد","registeredVoters_mun18":"238","mun_name_ar":"غزالة","gov_name_ar":"بنزرت","gov_name_en":"Bizerte","lat":"37.03987","lon":"9.553359","registeredVoters_par14":"183","signingVoters_par14":"103","registeredVoters_pres14":"183"},{"signingVoters_pres14":"","id":"142","center_name":"E.P.CHOUEIBIA OME AKSSABE","center_name_ar":"م إبتدائية الشوايبية - أم ا?قصاب","registeredVoters_mun18":"239","mun_name_ar":"ماجل بلعباس","gov_name_ar":"القصرين","gov_name_en":"Kasserine","lat":"34.84655128","lon":"8.292798885","registeredVoters_par14":"232","signingVoters_par14":"151","registeredVoters_pres14":""},{"signingVoters_pres14":"87","id":"143","center_name":"E.P. EL KHRADNIA   ESSaida EST","center_name_ar":"م إبتدائية الخرادنية - السعيدة الشماليّة","registeredVoters_mun18":"239","mun_name_ar":"سعيدة","gov_name_ar":"سيدي بوزيد","gov_name_en":"Sidi Bouzid","lat":"34.944137","lon":"9.983832","registeredVoters_par14":"182","signingVoters_par14":"112","registeredVoters_pres14":"182"},{"signingVoters_pres14":"","id":"144","center_name":"E.P.AIN MELLITI","center_name_ar":"م إبتدائية عين مليتي","registeredVoters_mun18":"239","mun_name_ar":"تبرسق","gov_name_ar":"باجة","gov_name_en":"Beja","lat":"36.498372","lon":"9.1768544","registeredVoters_par14":"210","signingVoters_par14":"107","registeredVoters_pres14":""},{"signingVoters_pres14":"","id":"145","center_name":"E.P.TH'RAYETTE - BOULAABA","center_name_ar":"م إبتدائية الثريات - بولعابة","registeredVoters_mun18":"239","mun_name_ar":"بلطة بوعوان","gov_name_ar":"جندوبة","gov_name_en":"Jendouba","lat":"36.650837","lon":"8.825616","registeredVoters_par14":"145","signingVoters_par14":"69","registeredVoters_pres14":""},{"signingVoters_pres14":"87","id":"146","center_name":"E.P.DHRAA LAKHDAR EL GARAA HAMRA","center_name_ar":"م إبتدائية الذراع ا?خضر - القرعة الحمراء","registeredVoters_mun18":"240","mun_name_ar":"الرخمات","gov_name_ar":"القصرين","gov_name_en":"Kasserine","lat":"35.171615","lon":"9.2160179","registeredVoters_par14":"178","signingVoters_par14":"107","registeredVoters_pres14":"178"},{"signingVoters_pres14":"94","id":"147","center_name":"E.P.BIR ZARROUK - EL KSOUR","center_name_ar":"م إبتدائية بئر زروق - القصور","registeredVoters_mun18":"240","mun_name_ar":"الشرايطية - القصور","gov_name_ar":"القيروان","gov_name_en":"Kairouan","lat":"35.23178867","lon":"9.997231244","registeredVoters_par14":"192","signingVoters_par14":"102","registeredVoters_pres14":"192"},{"signingVoters_pres14":"","id":"148","center_name":"","center_name_ar":"م إبتدائية بئر سفيان - فج تربح","registeredVoters_mun18":"240","mun_name_ar":"جدليان","gov_name_ar":"القصرين","gov_name_en":"Kasserine","lat":"35.598356","lon":"8.9089088","registeredVoters_par14":"","signingVoters_par14":"","registeredVoters_pres14":""},{"signingVoters_pres14":"66","id":"149","center_name":"","center_name_ar":"م إبتدائية الس?م - جبل الريحان","registeredVoters_mun18":"240","mun_name_ar":"الوسلاتية","gov_name_ar":"القيروان","gov_name_en":"Kairouan","lat":"35.84071028","lon":"9.681387681","registeredVoters_par14":"","signingVoters_par14":"","registeredVoters_pres14":"194"},{"signingVoters_pres14":"105","id":"150","center_name":"E.P.HAYADRA FEJ ETTAMR","center_name_ar":"م إبتدائية الحيادرة - فج التمر","registeredVoters_mun18":"240","mun_name_ar":"الجريصة","gov_name_ar":"الكاف","gov_name_en":"Le Kef","lat":"35.871351","lon":"8.6512735","registeredVoters_par14":"210","signingVoters_par14":"122","registeredVoters_pres14":"210"},{"signingVoters_pres14":"88","id":"151","center_name":"E.P.CITE EZZOUHOUR  METLAOUI","center_name_ar":"م إبتدائية حي الزهور المتلوي - المتلوي المركز","registeredVoters_mun18":"241","mun_name_ar":"المتلوي","gov_name_ar":"قفصة","gov_name_en":"Gafsa","lat":"34.313124","lon":"8.4134958","registeredVoters_par14":"151","signingVoters_par14":"100","registeredVoters_pres14":"151"},{"signingVoters_pres14":"88","id":"152","center_name":"E.P.ABABDA CHORBANE","center_name_ar":"م إبتدائية العبابدة - شربان","registeredVoters_mun18":"241","mun_name_ar":"شربان","gov_name_ar":"المهدية","gov_name_en":"Mahdia","lat":"35.26945864","lon":"10.41353756","registeredVoters_par14":"213","signingVoters_par14":"135","registeredVoters_pres14":"213"},{"signingVoters_pres14":"118","id":"153","center_name":"E.P.ENNAIMA OUED ERMAL SUD","center_name_ar":"م إبتدائية النعيمة - وادي الرمل الجنوبية","registeredVoters_mun18":"241","mun_name_ar":"الكاف","gov_name_ar":"الكاف","gov_name_en":"Le Kef","lat":"36.10849","lon":"8.598153","registeredVoters_par14":"207","signingVoters_par14":"133","registeredVoters_pres14":"207"},{"signingVoters_pres14":"","id":"154","center_name":"","center_name_ar":"م إبتدائية ولجة السدرة","registeredVoters_mun18":"241","mun_name_ar":"الطويرف","gov_name_ar":"الكاف","gov_name_en":"Le Kef","lat":"36.398706","lon":"8.5500996","registeredVoters_par14":"","signingVoters_par14":"","registeredVoters_pres14":""},{"signingVoters_pres14":"","id":"155","center_name":"E.P.MEGHRAOUA","center_name_ar":"م إبتدائية مغراوة","registeredVoters_mun18":"241","mun_name_ar":"زهرة مدين","gov_name_ar":"باجة","gov_name_en":"Beja","lat":"36.788769","lon":"8.9432","registeredVoters_par14":"209","signingVoters_par14":"109","registeredVoters_pres14":""},{"signingVoters_pres14":"","id":"156","center_name":"E.P.KTIFA SIDI GHRIB","center_name_ar":"م إبتدائية القطيفة سيدي غريب","registeredVoters_mun18":"242","mun_name_ar":"المحرص","gov_name_ar":"صفاقس","gov_name_en":"Sfax","lat":"34.513805","lon":"10.31836","registeredVoters_par14":"205","signingVoters_par14":"153","registeredVoters_pres14":""},{"signingVoters_pres14":"","id":"157","center_name":"E.P.ETTOUABAA EZAWARINE","center_name_ar":"م إبتدائية التوابع - الزوارين","registeredVoters_mun18":"242","mun_name_ar":"الدهماني","gov_name_ar":"الكاف","gov_name_en":"Le Kef","lat":"35.979355","lon":"8.8883985","registeredVoters_par14":"226","signingVoters_par14":"145","registeredVoters_pres14":""},{"signingVoters_pres14":"156","id":"158","center_name":"E.P.CITE CASERNE  SMAR","center_name_ar":"م إبتدائية حي الثكنة الصمار","registeredVoters_mun18":"243","mun_name_ar":"الصمار","gov_name_ar":"تطاوين","gov_name_en":"Tataouine","lat":"33.004593","lon":"10.826373","registeredVoters_par14":"205","signingVoters_par14":"141","registeredVoters_pres14":"205"},{"signingVoters_pres14":"134","id":"159","center_name":"E.P.EL BTINE","center_name_ar":"م إبتدائية البطين - عمرون","registeredVoters_mun18":"243","mun_name_ar":"دار شعبان","gov_name_ar":"نابل","gov_name_en":"Nabeul","lat":"36.501901","lon":"10.702461","registeredVoters_par14":"199","signingVoters_par14":"165","registeredVoters_pres14":"199"},{"signingVoters_pres14":"105","id":"160","center_name":"E.P.OUELJET EDDOUKHANE - SLOUGUIA","center_name_ar":"م إبتدائية ولجة الدخان - السلوقية","registeredVoters_mun18":"243","mun_name_ar":"السلوقية","gov_name_ar":"باجة","gov_name_en":"Beja","lat":"36.602032","lon":"9.5537881","registeredVoters_par14":"161","signingVoters_par14":"111","registeredVoters_pres14":"161"},{"signingVoters_pres14":"132","id":"161","center_name":"E.P.BEN JEDOU TATAOUINE EL KALAA OUEST","center_name_ar":"م إبتدائية بن جدو تطاوين - القلعة الغربية","registeredVoters_mun18":"244","mun_name_ar":"تطاوين","gov_name_ar":"تطاوين","gov_name_en":"Tataouine","lat":"32.772104","lon":"10.496669","registeredVoters_par14":"236","signingVoters_par14":"141","registeredVoters_pres14":"236"},{"signingVoters_pres14":"103","id":"162","center_name":"E.P.RECHERCHA 2 MAHDIA","center_name_ar":"م إبتدائية الرشارشة 2 المهدية - الرشارشة","registeredVoters_mun18":"244","mun_name_ar":"البرادعة","gov_name_ar":"المهدية","gov_name_en":"Mahdia","lat":"35.30278426","lon":"10.98325869","registeredVoters_par14":"237","signingVoters_par14":"139","registeredVoters_pres14":"237"},{"signingVoters_pres14":"157","id":"163","center_name":"E.P.HRICHE KHMOUDA NORD","center_name_ar":"م إبتدائية الهريش - خمودة الشمالية","registeredVoters_mun18":"244","mun_name_ar":"خمودة","gov_name_ar":"القصرين","gov_name_en":"Kasserine","lat":"35.304748","lon":"8.6975911","registeredVoters_par14":"225","signingVoters_par14":"155","registeredVoters_pres14":"225"},{"signingVoters_pres14":"111","id":"164","center_name":"E.P.AIN MRADA ELHOUDHE","center_name_ar":"م إبتدائية عين مرادة - الحوض","registeredVoters_mun18":"244","mun_name_ar":"تاجروين","gov_name_ar":"الكاف","gov_name_en":"Le Kef","lat":"35.904611","lon":"8.6329524","registeredVoters_par14":"220","signingVoters_par14":"116","registeredVoters_pres14":"220"},{"signingVoters_pres14":"104","id":"165","center_name":"E.P.EL ALIA /DOUKHANIA","center_name_ar":"م إبتدائية العالية - الدخانية","registeredVoters_mun18":"244","mun_name_ar":"الكريب","gov_name_ar":"سليانة","gov_name_en":"Siliana","lat":"36.36025015","lon":"9.16154536","registeredVoters_par14":"231","signingVoters_par14":"144","registeredVoters_pres14":"231"},{"signingVoters_pres14":"","id":"166","center_name":"E.P.BOUGOSSA OUED MLIZ EST","center_name_ar":"م إبتدائية بوقصة - وادي مليز الشرقية","registeredVoters_mun18":"244","mun_name_ar":"وادي مليز","gov_name_ar":"جندوبة","gov_name_en":"Jendouba","lat":"36.430628","lon":"8.576663","registeredVoters_par14":"234","signingVoters_par14":"167","registeredVoters_pres14":""},{"signingVoters_pres14":"76","id":"167","center_name":"E.P.ERRIADH MECHRAK CHAMESS","center_name_ar":"م إبتدائية الرياض - مشرق الشمس","registeredVoters_mun18":"245","mun_name_ar":"الشرائع مشرق الشمس","gov_name_ar":"القصرين","gov_name_en":"Kasserine","lat":"35.316014","lon":"9.0126248","registeredVoters_par14":"179","signingVoters_par14":"88","registeredVoters_pres14":"179"},{"signingVoters_pres14":"126","id":"168","center_name":"E.P.ZHILA KSSOUR","center_name_ar":"م إبتدائية الزهيلة - القصور","registeredVoters_mun18":"245","mun_name_ar":"القصور","gov_name_ar":"الكاف","gov_name_en":"Le Kef","lat":"35.880475","lon":"8.881147","registeredVoters_par14":"220","signingVoters_par14":"152","registeredVoters_pres14":"220"},{"signingVoters_pres14":"148","id":"169","center_name":"E.P.BIR BSIR Koutine","center_name_ar":"م إبتدائية بئر البصير - كوتين","registeredVoters_mun18":"246","mun_name_ar":"مدنين","gov_name_ar":"مدنين","gov_name_en":"Medenine","lat":"33.490687","lon":"10.342046","registeredVoters_par14":"239","signingVoters_par14":"142","registeredVoters_pres14":"239"},{"signingVoters_pres14":"130","id":"170","center_name":"E.P.OGLET AHMED OM LARAESS","center_name_ar":"م إبتدائية عقلة احمد ام العرائس - أم ا?قصاب","registeredVoters_mun18":"246","mun_name_ar":"سيدي بوبكر","gov_name_ar":"قفصة","gov_name_en":"Gafsa","lat":"34.708625","lon":"8.3607183","registeredVoters_par14":"240","signingVoters_par14":"77","registeredVoters_pres14":"240"},{"signingVoters_pres14":"69","id":"171","center_name":"","center_name_ar":"م إبتدائية المحافظية - زغمار","registeredVoters_mun18":"246","mun_name_ar":"باطن الغزال","gov_name_ar":"سيدي بوزيد","gov_name_en":"Sidi Bouzid","lat":"35.365505","lon":"9.3437882","registeredVoters_par14":"","signingVoters_par14":"","registeredVoters_pres14":"227"},{"signingVoters_pres14":"127","id":"172","center_name":"E.P.ZAAFRANE GARE","center_name_ar":"م إبتدائية محطة الزعفران","registeredVoters_mun18":"246","mun_name_ar":"زعفران دير الكاف","gov_name_ar":"الكاف","gov_name_en":"Le Kef","lat":"36.157214","lon":"8.8319436","registeredVoters_par14":"226","signingVoters_par14":"142","registeredVoters_pres14":"226"},{"signingVoters_pres14":"96","id":"173","center_name":"E.P.ZITOUNET EL AYAICHA","center_name_ar":"م إبتدائية زيتونة العيايشة بلخير","registeredVoters_mun18":"247","mun_name_ar":"بلخير","gov_name_ar":"قفصة","gov_name_en":"Gafsa","lat":"34.201064","lon":"9.2339968","registeredVoters_par14":"231","signingVoters_par14":"90","registeredVoters_pres14":"231"},{"signingVoters_pres14":"","id":"174","center_name":"","center_name_ar":"م إبتدائية الحادثة - الخضراء","registeredVoters_mun18":"247","mun_name_ar":"الصخيرة","gov_name_ar":"صفاقس","gov_name_en":"Sfax","lat":"34.25749","lon":"9.8674004","registeredVoters_par14":"","signingVoters_par14":"","registeredVoters_pres14":""},{"signingVoters_pres14":"","id":"175","center_name":"","center_name_ar":"م إبتدائية البياضة السند","registeredVoters_mun18":"247","mun_name_ar":"السند","gov_name_ar":"قفصة","gov_name_en":"Gafsa","lat":"34.478593","lon":"9.1710808","registeredVoters_par14":"","signingVoters_par14":"","registeredVoters_pres14":""},{"signingVoters_pres14":"133","id":"176","center_name":"E.P.SIDI GHRIB HINCHA","center_name_ar":"م إبتدائية سيدي غريب - الحنشة","registeredVoters_mun18":"247","mun_name_ar":"الحنشة","gov_name_ar":"صفاقس","gov_name_en":"Sfax","lat":"35.129243","lon":"10.801377","registeredVoters_par14":"214","signingVoters_par14":"163","registeredVoters_pres14":"214"},{"signingVoters_pres14":"88","id":"177","center_name":"E.P.ECHEIBET Chtatala","center_name_ar":"م إبتدائية الشعيبات - الشتاتلة","registeredVoters_mun18":"247","mun_name_ar":"بهرة","gov_name_ar":"الكاف","gov_name_en":"Le Kef","lat":"36.360793","lon":"8.9157085","registeredVoters_par14":"220","signingVoters_par14":"109","registeredVoters_pres14":"220"},{"signingVoters_pres14":"","id":"178","center_name":"","center_name_ar":"م إبتدائية سيدي عبد الكافي - عيون المايل","registeredVoters_mun18":"248","mun_name_ar":"العوابد الخزانات","gov_name_ar":"صفاقس","gov_name_en":"Sfax","lat":"34.910654","lon":"10.661055","registeredVoters_par14":"","signingVoters_par14":"","registeredVoters_pres14":""},{"signingVoters_pres14":"152","id":"179","center_name":"E.P.EL MATAR SIDI AHMED SALAH","center_name_ar":"م إبتدائية المطار - سيدي أحمد الصالح","registeredVoters_mun18":"248","mun_name_ar":"القلعة الخصباء","gov_name_ar":"الكاف","gov_name_en":"Le Kef","lat":"35.700647","lon":"8.5878768","registeredVoters_par14":"241","signingVoters_par14":"164","registeredVoters_pres14":"241"},{"signingVoters_pres14":"113","id":"180","center_name":"E.P.DHAMDA AMIEM SUD","center_name_ar":"م إبتدائية ضمدة - العمايم الجنوبية","registeredVoters_mun18":"248","mun_name_ar":"العمايم","gov_name_ar":"زغوان","gov_name_en":"Zaghouan","lat":"36.28025239","lon":"9.908342467","registeredVoters_par14":"241","signingVoters_par14":"145","registeredVoters_pres14":"241"},{"signingVoters_pres14":"148","id":"181","center_name":"E.P.HENCHIR EL MAJEL K. JADID","center_name_ar":"م إبتدائية هنشير الماجل - القصر الجديد","registeredVoters_mun18":"249","mun_name_ar":"بني خداش","gov_name_ar":"مدنين","gov_name_en":"Medenine","lat":"33.331078","lon":"10.306727","registeredVoters_par14":"205","signingVoters_par14":"160","registeredVoters_pres14":"206"},{"signingVoters_pres14":"","id":"182","center_name":"E.P.DHAFRIA TAMAGHZA CHEBIKA","center_name_ar":"م إبتدائية الظافرية تمغـزة - الشبيكة","registeredVoters_mun18":"249","mun_name_ar":"تمغزة","gov_name_ar":"توزر","gov_name_en":"Tozeur","lat":"34.21245","lon":"7.8185232","registeredVoters_par14":"191","signingVoters_par14":"135","registeredVoters_pres14":""},{"signingVoters_pres14":"139","id":"183","center_name":"E.P.MHEDHBA CHOALEB","center_name_ar":"م إبتدائية المهاذبة - شع?ب","registeredVoters_mun18":"249","mun_name_ar":"منزل شاكر","gov_name_ar":"صفاقس","gov_name_en":"Sfax","lat":"35.012258","lon":"10.412126","registeredVoters_par14":"211","signingVoters_par14":"171","registeredVoters_pres14":"211"},{"signingVoters_pres14":"","id":"184","center_name":"E.P.LAJRAD","center_name_ar":"م إبتدائية ا?جرد","registeredVoters_mun18":"249","mun_name_ar":"حيدرة","gov_name_ar":"القصرين","gov_name_en":"Kasserine","lat":"35.55808561","lon":"8.456704208","registeredVoters_par14":"211","signingVoters_par14":"151","registeredVoters_pres14":""},{"signingVoters_pres14":"131","id":"185","center_name":"E.P.GRINE EL KALEKH-OUED SOINI","center_name_ar":"م إبتدائية قرين الكلخ - وادي السواني","registeredVoters_mun18":"249","mun_name_ar":"زعفران دير الكاف","gov_name_ar":"الكاف","gov_name_en":"Le Kef","lat":"36.238909","lon":"8.9819454","registeredVoters_par14":"237","signingVoters_par14":"148","registeredVoters_pres14":"237"},{"signingVoters_pres14":"65","id":"186","center_name":"E.P.EL MHAFDHIA TOUCHA","center_name_ar":"م إبتدائية المحافظيـة - توشة","registeredVoters_mun18":"250","mun_name_ar":"العيون","gov_name_ar":"القصرين","gov_name_en":"Kasserine","lat":"35.447533","lon":"8.9260245","registeredVoters_par14":"205","signingVoters_par14":"127","registeredVoters_pres14":"205"},{"signingVoters_pres14":"92","id":"187","center_name":"E.P.SIDI AMOR EL KNANI ZAAFRANA","center_name_ar":"م إبتدائية سيدي عمر الكناني - زعفرانة","registeredVoters_mun18":"250","mun_name_ar":"رقادة","gov_name_ar":"القيروان","gov_name_en":"Kairouan","lat":"35.560309","lon":"10.113211","registeredVoters_par14":"172","signingVoters_par14":"113","registeredVoters_pres14":"172"},{"signingVoters_pres14":"66","id":"188","center_name":"E.P.EL GABOU KALAA KOBRA","center_name_ar":"م إبتدائية القبو القلعة الكبرى - بلعوم","registeredVoters_mun18":"250","mun_name_ar":"القلعة الكبرى","gov_name_ar":"سوسة","gov_name_en":"Sousse","lat":"35.838778","lon":"10.393728","registeredVoters_par14":"171","signingVoters_par14":"95","registeredVoters_pres14":"171"},{"signingVoters_pres14":"93","id":"189","center_name":"E.P.HENCHIR AMROUN","center_name_ar":"م إبتدائية هنشير عمرون","registeredVoters_mun18":"250","mun_name_ar":"دار شعبان","gov_name_ar":"نابل","gov_name_en":"Nabeul","lat":"36.503653","lon":"10.71677","registeredVoters_par14":"238","signingVoters_par14":"124","registeredVoters_pres14":"238"},{"signingVoters_pres14":"","id":"190","center_name":"E.P.ITEBB - SATFOURA","center_name_ar":"م إبتدائية عتاب - سطفورة","registeredVoters_mun18":"250","mun_name_ar":"جندوبة","gov_name_ar":"جندوبة","gov_name_en":"Jendouba","lat":"36.561049","lon":"8.6434106","registeredVoters_par14":"218","signingVoters_par14":"127","registeredVoters_pres14":""},{"signingVoters_pres14":"125","id":"191","center_name":"E.P.KHALFALLAH HAMADI ELHICHEM","center_name_ar":"م إبتدائية خلف الله - حمادي الهشام","registeredVoters_mun18":"251","mun_name_ar":"جرجيس","gov_name_ar":"مدنين","gov_name_en":"Medenine","lat":"33.442104","lon":"10.922547","registeredVoters_par14":"217","signingVoters_par14":"145","registeredVoters_pres14":"217"},{"signingVoters_pres14":"","id":"192","center_name":"E.P.NAOUELLE","center_name_ar":"م إبتدائية النوال","registeredVoters_mun18":"251","mun_name_ar":"الصخيرة","gov_name_ar":"صفاقس","gov_name_en":"Sfax","lat":"34.369211","lon":"9.9066776","registeredVoters_par14":"207","signingVoters_par14":"109","registeredVoters_pres14":""},{"signingVoters_pres14":"","id":"193","center_name":"","center_name_ar":"م إبتدائية العلندة قفصة - الناظور","registeredVoters_mun18":"251","mun_name_ar":"قفصة","gov_name_ar":"قفصة","gov_name_en":"Gafsa","lat":"34.620571","lon":"8.6383698","registeredVoters_par14":"","signingVoters_par14":"","registeredVoters_pres14":""},{"signingVoters_pres14":"127","id":"194","center_name":"E.P.ERZAIGUIA - OULED AMOR","center_name_ar":"م إبتدائية الرزايقية - أو?د عمر","registeredVoters_mun18":"251","mun_name_ar":"أولاد شامخ","gov_name_ar":"المهدية","gov_name_en":"Mahdia","lat":"35.46485772","lon":"10.439363","registeredVoters_par14":"224","signingVoters_par14":"158","registeredVoters_pres14":"224"},{"signingVoters_pres14":"84","id":"195","center_name":"E.P.EL HARA - BAHRA","center_name_ar":"م إبتدائية الحارة - بهرة","registeredVoters_mun18":"251","mun_name_ar":"بهرة","gov_name_ar":"الكاف","gov_name_en":"Le Kef","lat":"36.30133177","lon":"8.859985488","registeredVoters_par14":"231","signingVoters_par14":"113","registeredVoters_pres14":"231"},{"signingVoters_pres14":"87","id":"196","center_name":"E.P.JABBES ELBRIKA","center_name_ar":"م إبتدائية الجباس - البريكة","registeredVoters_mun18":"252","mun_name_ar":"خمودة","gov_name_ar":"القصرين","gov_name_en":"Kasserine","lat":"35.263459","lon":"8.7068562","registeredVoters_par14":"182","signingVoters_par14":"104","registeredVoters_pres14":"182"},{"signingVoters_pres14":"","id":"197","center_name":"E.P.EL GOUIRA EL HICHIME","center_name_ar":"م إبتدائية القويرة - الهشيم","registeredVoters_mun18":"253","mun_name_ar":"حاسي الفريد","gov_name_ar":"القصرين","gov_name_en":"Kasserine","lat":"35.015925","lon":"8.9756022","registeredVoters_par14":"212","signingVoters_par14":"120","registeredVoters_pres14":""},{"signingVoters_pres14":"","id":"198","center_name":"E.P.IBN ZALLOUCH - CHARAÃTEA SUD","center_name_ar":"م إبتدائية ابن زلوش - الشرايطية الجنوبية","registeredVoters_mun18":"253","mun_name_ar":"الشرايطية - القصور","gov_name_ar":"القيروان","gov_name_en":"Kairouan","lat":"35.17101914","lon":"10.0404854","registeredVoters_par14":"171","signingVoters_par14":"100","registeredVoters_pres14":""},{"signingVoters_pres14":"144","id":"199","center_name":"E.P.BENI BILEL EL JEDIDA","center_name_ar":"م إبتدائية بني ب?ل الجديدة","registeredVoters_mun18":"254","mun_name_ar":"تطاوين","gov_name_ar":"تطاوين","gov_name_en":"Tataouine","lat":"32.888275","lon":"10.532354","registeredVoters_par14":"242","signingVoters_par14":"139","registeredVoters_pres14":"242"},{"signingVoters_pres14":"","id":"200","center_name":"E.P.TAMEZRET","center_name_ar":"م إبتدائية تمزرط","registeredVoters_mun18":"254","mun_name_ar":"مطماطة","gov_name_ar":"قابس","gov_name_en":"Gabes","lat":"33.534901","lon":"9.8669844","registeredVoters_par14":"245","signingVoters_par14":"142","registeredVoters_pres14":""},{"signingVoters_pres14":"146","id":"201","center_name":"E.P.EL HORRIA","center_name_ar":"م إبتدائية الحرية - بوغرارة","registeredVoters_mun18":"254","mun_name_ar":"بوغرارة","gov_name_ar":"مدنين","gov_name_en":"Medenine","lat":"33.539387","lon":"10.646181","registeredVoters_par14":"218","signingVoters_par14":"158","registeredVoters_pres14":"218"},{"signingVoters_pres14":"43","id":"202","center_name":"E.P.EL HAMED  BIRE AMAMA","center_name_ar":"م إبتدائية الحماد - بئر عمامة","registeredVoters_mun18":"254","mun_name_ar":"بئر الحفي","gov_name_ar":"سيدي بوزيد","gov_name_en":"Sidi Bouzid","lat":"34.865333","lon":"9.2763801","registeredVoters_par14":"120","signingVoters_par14":"56","registeredVoters_pres14":"120"},{"signingVoters_pres14":"109","id":"203","center_name":"","center_name_ar":"م إبتدائية خبنة الطمامة - المنارة","registeredVoters_mun18":"254","mun_name_ar":"نصر الله","gov_name_ar":"القيروان","gov_name_en":"Kairouan","lat":"35.23055941","lon":"9.731067254","registeredVoters_par14":"","signingVoters_par14":"","registeredVoters_pres14":"246"},{"signingVoters_pres14":"","id":"204","center_name":"E.P.AIN FEDHIL","center_name_ar":"م إبتدائية عين فضيل","registeredVoters_mun18":"254","mun_name_ar":"القصور","gov_name_ar":"الكاف","gov_name_en":"Le Kef","lat":"35.884282","lon":"9.006846","registeredVoters_par14":"227","signingVoters_par14":"105","registeredVoters_pres14":""},{"signingVoters_pres14":"70","id":"205","center_name":"E.P.AIN YOUNES","center_name_ar":"م إبتدائية عين يونس","registeredVoters_mun18":"254","mun_name_ar":"تستور","gov_name_ar":"باجة","gov_name_en":"Beja","lat":"36.44394389","lon":"9.376695876","registeredVoters_par14":"179","signingVoters_par14":"101","registeredVoters_pres14":"170"},{"signingVoters_pres14":"136","id":"206","center_name":"E.P.RUE TAIB M'HIRI JENDOUBA","center_name_ar":"م إبتدائية شارع الطيب المهيري جندوبة","registeredVoters_mun18":"254","mun_name_ar":"جندوبة","gov_name_ar":"جندوبة","gov_name_en":"Jendouba","lat":"36.499576","lon":"8.78036","registeredVoters_par14":"196","signingVoters_par14":"136","registeredVoters_pres14":"196"},{"signingVoters_pres14":"","id":"207","center_name":"E.P.BASSATINE ESSOD ELASFOUR","center_name_ar":"م إبندائية السد البساتين  - العصفور","registeredVoters_mun18":"254","mun_name_ar":"منزل حر","gov_name_ar":"نابل","gov_name_en":"Nabeul","lat":"36.74041","lon":"10.926775","registeredVoters_par14":"228","signingVoters_par14":"143","registeredVoters_pres14":""},{"signingVoters_pres14":"129","id":"208","center_name":"E.P.EL HOUACHINE S.EDDHAHER","center_name_ar":"م إبتدائية الحواشين - سيدي ظاهر","registeredVoters_mun18":"255","mun_name_ar":"الناظور - سيدي علي","gov_name_ar":"صفاقس","gov_name_en":"Sfax","lat":"34.84814","lon":"9.9853224","registeredVoters_par14":"203","signingVoters_par14":"156","registeredVoters_pres14":"203"},{"signingVoters_pres14":"119","id":"209","center_name":"E.P.EL HICHRIA MAKAREM","center_name_ar":"م.ا?بتدائية الهيشرية (العزارة) - الزيتونة","registeredVoters_mun18":"255","mun_name_ar":"الاحواز لسودة","gov_name_ar":"سيدي بوزيد","gov_name_en":"Sidi Bouzid","lat":"34.938249","lon":"9.5154232","registeredVoters_par14":"223","signingVoters_par14":"129","registeredVoters_pres14":"223"},{"signingVoters_pres14":"86","id":"210","center_name":"E.P.HDADIA CHRAITIA SUD","center_name_ar":"م إبتدائية الحدايدية - الشرايطية الجنوبية","registeredVoters_mun18":"255","mun_name_ar":"الشرايطية - القصور","gov_name_ar":"القيروان","gov_name_en":"Kairouan","lat":"35.20297497","lon":"10.10356322","registeredVoters_par14":"188","signingVoters_par14":"118","registeredVoters_pres14":"188"},{"signingVoters_pres14":"225","id":"211","center_name":"E.P.HLELFA SIDI HSEN BELHAJ","center_name_ar":"م إبتدائية الح?لفة الجنوبية - سيدي حسن بالحاج","registeredVoters_mun18":"255","mun_name_ar":"الحنشة","gov_name_ar":"صفاقس","gov_name_en":"Sfax","lat":"35.21658","lon":"10.750646","registeredVoters_par14":"481","signingVoters_par14":"291","registeredVoters_pres14":"491"},{"signingVoters_pres14":"133","id":"212","center_name":"","center_name_ar":"م إبتدائية الحميدات الشرقية 2","registeredVoters_mun18":"255","mun_name_ar":"منزل المهيري","gov_name_ar":"القيروان","gov_name_en":"Kairouan","lat":"35.491469","lon":"9.8747471","registeredVoters_par14":"","signingVoters_par14":"","registeredVoters_pres14":"240"},{"signingVoters_pres14":"105","id":"213","center_name":"","center_name_ar":"م إبتدائية أو?د ب?ل - الروحية","registeredVoters_mun18":"255","mun_name_ar":"الروحية","gov_name_ar":"سليانة","gov_name_en":"Siliana","lat":"35.65922887","lon":"9.10101523","registeredVoters_par14":"","signingVoters_par14":"","registeredVoters_pres14":"229"},{"signingVoters_pres14":"127","id":"214","center_name":"E.P.EL FEKKA OME AKSSABE","center_name_ar":"م إبتدائية الفكة - أم ا?قصاب","registeredVoters_mun18":"256","mun_name_ar":"ماجل بلعباس","gov_name_ar":"القصرين","gov_name_en":"Kasserine","lat":"34.73376689","lon":"8.374284752","registeredVoters_par14":"269","signingVoters_par14":"172","registeredVoters_pres14":"269"},{"signingVoters_pres14":"127","id":"215","center_name":"E.P. SIDI ALI BELABED","center_name_ar":"م إبتدائية سيدي علي بلعابد","registeredVoters_mun18":"256","mun_name_ar":"الناظور - سيدي علي","gov_name_ar":"صفاقس","gov_name_en":"Sfax","lat":"34.788145","lon":"10.169497","registeredVoters_par14":"232","signingVoters_par14":"168","registeredVoters_pres14":"232"},{"signingVoters_pres14":"87","id":"216","center_name":"E.P.EL H'MAIDIA SAIDA EST","center_name_ar":"م إبتدائية الحمائدية - السعيدة الشرقية","registeredVoters_mun18":"256","mun_name_ar":"سعيدة","gov_name_ar":"سيدي بوزيد","gov_name_en":"Sidi Bouzid","lat":"34.917998","lon":"9.976969","registeredVoters_par14":"218","signingVoters_par14":"128","registeredVoters_pres14":"218"},{"signingVoters_pres14":"123","id":"217","center_name":"E.P.CHOUECHE - OUED GUALLET","center_name_ar":"م إبتدائية الشواش - وادي ق?ت","registeredVoters_mun18":"256","mun_name_ar":"سيدي علوان","gov_name_ar":"المهدية","gov_name_en":"Mahdia","lat":"35.403236","lon":"10.854712","registeredVoters_par14":"241","signingVoters_par14":"159","registeredVoters_pres14":"241"},{"signingVoters_pres14":"104","id":"218","center_name":"E.P.FRADA MSAKEN","center_name_ar":"م إبتدائية الفرادة مساكن","registeredVoters_mun18":"256","mun_name_ar":"مساكن","gov_name_ar":"سوسة","gov_name_en":"Sousse","lat":"35.55216","lon":"10.518891","registeredVoters_par14":"233","signingVoters_par14":"154","registeredVoters_pres14":"233"},{"signingVoters_pres14":"107","id":"219","center_name":"E.P.CHARKIA  ZROUD","center_name_ar":"م إبتدائية الشرقية - زرود","registeredVoters_mun18":"256","mun_name_ar":"القيروان","gov_name_ar":"القيروان","gov_name_en":"Kairouan","lat":"35.680903","lon":"10.174943","registeredVoters_par14":"226","signingVoters_par14":"122","registeredVoters_pres14":"226"},{"signingVoters_pres14":"144","id":"220","center_name":"E.P.SIDI HAMADA","center_name_ar":"م إبتدائية سيدي حماده","registeredVoters_mun18":"256","mun_name_ar":"سيدي مرشد","gov_name_ar":"سليانة","gov_name_en":"Siliana","lat":"35.960884","lon":"9.546599","registeredVoters_par14":"233","signingVoters_par14":"155","registeredVoters_pres14":"233"},{"signingVoters_pres14":"83","id":"221","center_name":"","center_name_ar":"م إبتدائية الطاوسة - معروف","registeredVoters_mun18":"256","mun_name_ar":"الوسلاتية","gov_name_ar":"القيروان","gov_name_en":"Kairouan","lat":"35.99836297","lon":"9.730839111","registeredVoters_par14":"","signingVoters_par14":"","registeredVoters_pres14":"242"},{"signingVoters_pres14":"","id":"222","center_name":"","center_name_ar":"م إبتدائية الصعدان - عمرة","registeredVoters_mun18":"257","mun_name_ar":"سيدي مخلوف","gov_name_ar":"مدنين","gov_name_en":"Medenine","lat":"33.46988","lon":"10.617111","registeredVoters_par14":"","signingVoters_par14":"","registeredVoters_pres14":""},{"signingVoters_pres14":"145","id":"223","center_name":"E.P.ESSOUENI OM AKSSABE","center_name_ar":"م إبتدائية السواني - أم ا?قصاب","registeredVoters_mun18":"257","mun_name_ar":"ماجل بلعباس","gov_name_ar":"القصرين","gov_name_en":"Kasserine","lat":"34.70825102","lon":"8.393985128","registeredVoters_par14":"256","signingVoters_par14":"172","registeredVoters_pres14":"256"},{"signingVoters_pres14":"69","id":"224","center_name":"E.P.EL ABAYDIA - BIR HLOU","center_name_ar":"م إبتدائية العبايدية - بئر الحلو","registeredVoters_mun18":"257","mun_name_ar":"الشراردة","gov_name_ar":"القيروان","gov_name_en":"Kairouan","lat":"35.08910986","lon":"10.06574657","registeredVoters_par14":"179","signingVoters_par14":"110","registeredVoters_pres14":"179"},{"signingVoters_pres14":"","id":"225","center_name":"","center_name_ar":"م إبتدائية 41 جانفي الهوارب - الكرمة","registeredVoters_mun18":"257","mun_name_ar":"عبيدة","gov_name_ar":"القيروان","gov_name_en":"Kairouan","lat":"35.563965","lon":"9.8405734","registeredVoters_par14":"","signingVoters_par14":"","registeredVoters_pres14":""},{"signingVoters_pres14":"","id":"226","center_name":"E.P.HENCHIR HAMAM OUMJDOUR","center_name_ar":"م إبتدائية هنشير الحمام - عين أم الجدور","registeredVoters_mun18":"257","mun_name_ar":"جدليان","gov_name_ar":"القصرين","gov_name_en":"Kasserine","lat":"35.700888","lon":"8.8696605","registeredVoters_par14":"232","signingVoters_par14":"141","registeredVoters_pres14":""},{"signingVoters_pres14":"96","id":"227","center_name":"","center_name_ar":"م إبتدائية رأس العيثة - جبل الريحان","registeredVoters_mun18":"257","mun_name_ar":"الوسلاتية","gov_name_ar":"القيروان","gov_name_en":"Kairouan","lat":"35.74769532","lon":"9.661636596","registeredVoters_par14":"","signingVoters_par14":"","registeredVoters_pres14":"230"},{"signingVoters_pres14":"154","id":"228","center_name":"E.P.EL KNENA SIDI BOU ALI","center_name_ar":"م إبتدائية الكنانة سيدي بوعلي - السد الجوفي ( السطح)","registeredVoters_mun18":"257","mun_name_ar":"سيدي بوعلي","gov_name_ar":"سوسة","gov_name_en":"Sousse","lat":"35.948642","lon":"10.393805","registeredVoters_par14":"243","signingVoters_par14":"184","registeredVoters_pres14":"243"},{"signingVoters_pres14":"116","id":"229","center_name":"E.P.ROUISSINE JEDIDA AIN ACHOUR","center_name_ar":"م إبتدائية الرويسين الجديدة - عين عاشور","registeredVoters_mun18":"257","mun_name_ar":"بورويس","gov_name_ar":"سليانة","gov_name_en":"Siliana","lat":"36.143229","lon":"9.085949","registeredVoters_par14":"234","signingVoters_par14":"166","registeredVoters_pres14":"234"},{"signingVoters_pres14":"172","id":"230","center_name":"E.P.KSAR HALLOUF EL MENZLA","center_name_ar":"م إبتدائية قصر الحلوف - المنزلة","registeredVoters_mun18":"259","mun_name_ar":"بني خداش","gov_name_ar":"مدنين","gov_name_en":"Medenine","lat":"33.291355","lon":"10.155323","registeredVoters_par14":"250","signingVoters_par14":"187","registeredVoters_pres14":"250"},{"signingVoters_pres14":"","id":"231","center_name":"","center_name_ar":"م إبتدائية جباس - الغريفات","registeredVoters_mun18":"259","mun_name_ar":"الفحص","gov_name_ar":"زغوان","gov_name_en":"Zaghouan","lat":"36.44615662","lon":"9.926369934","registeredVoters_par14":"","signingVoters_par14":"","registeredVoters_pres14":""},{"signingVoters_pres14":"102","id":"232","center_name":"E.P.EL MECH OUEST","center_name_ar":"م إبتدائية المش الغربية - المش","registeredVoters_mun18":"260","mun_name_ar":"المكناسي","gov_name_ar":"سيدي بوزيد","gov_name_en":"Sidi Bouzid","lat":"34.513163","lon":"9.469589","registeredVoters_par14":"199","signingVoters_par14":"112","registeredVoters_pres14":"199"},{"signingVoters_pres14":"124","id":"233","center_name":"E.P.SALAH BAHRI - OUED SELOUANE","center_name_ar":"م إبتدائية صالح البحري - وادي السواني","registeredVoters_mun18":"260","mun_name_ar":"زعفران دير الكاف","gov_name_ar":"الكاف","gov_name_en":"Le Kef","lat":"36.177516","lon":"8.9337463","registeredVoters_par14":"208","signingVoters_par14":"141","registeredVoters_pres14":"208"},{"signingVoters_pres14":"","id":"234","center_name":"E.P.OUED JEDRA - MZOUGHA","center_name_ar":"م إبتدائية وادي الجدرة - مزوغة","registeredVoters_mun18":"260","mun_name_ar":"تستور","gov_name_ar":"باجة","gov_name_en":"Beja","lat":"36.55104801","lon":"9.352691595","registeredVoters_par14":"208","signingVoters_par14":"123","registeredVoters_pres14":""},{"signingVoters_pres14":"116","id":"235","center_name":"E.P.JOREF TAMESSENT JOREF","center_name_ar":"م إبتدائية الجرف تماسنت - الجرف","registeredVoters_mun18":"261","mun_name_ar":"سيدي مخلوف","gov_name_ar":"مدنين","gov_name_en":"Medenine","lat":"33.688386","lon":"10.706051","registeredVoters_par14":"190","signingVoters_par14":"128","registeredVoters_pres14":"190"},{"signingVoters_pres14":"57","id":"236","center_name":"E.P.JABBES","center_name_ar":"م إبتدائية الجباس- الجباس","registeredVoters_mun18":"261","mun_name_ar":"المكناسي","gov_name_ar":"سيدي بوزيد","gov_name_en":"Sidi Bouzid","lat":"34.709939","lon":"9.656819","registeredVoters_par14":"187","signingVoters_par14":"79","registeredVoters_pres14":"187"},{"signingVoters_pres14":"122","id":"237","center_name":"E.P.SMAALA ELHOUDHE","center_name_ar":"م إبتدائية السماعلة - الحوض","registeredVoters_mun18":"261","mun_name_ar":"تاجروين","gov_name_ar":"الكاف","gov_name_en":"Le Kef","lat":"35.929932","lon":"8.6538115","registeredVoters_par14":"242","signingVoters_par14":"142","registeredVoters_pres14":"242"},{"signingVoters_pres14":"","id":"238","center_name":"E.P.BATEN ZOUARINE","center_name_ar":"م إبتدائية الباطن - الزوارين","registeredVoters_mun18":"261","mun_name_ar":"الدهماني","gov_name_ar":"الكاف","gov_name_en":"Le Kef","lat":"35.950476","lon":"8.9035278","registeredVoters_par14":"215","signingVoters_par14":"132","registeredVoters_pres14":""},{"signingVoters_pres14":"119","id":"239","center_name":"E.P.JLEILIA Dakhlia","center_name_ar":"م إبتدائية الج?يلية - الدخايلية","registeredVoters_mun18":"261","mun_name_ar":"وادي مليز","gov_name_ar":"جندوبة","gov_name_en":"Jendouba","lat":"36.501533","lon":"8.541892","registeredVoters_par14":"231","signingVoters_par14":"154","registeredVoters_pres14":"231"},{"signingVoters_pres14":"98","id":"240","center_name":"E.P.AOUIJA","center_name_ar":"م إبتدائية العويجة","registeredVoters_mun18":"262","mun_name_ar":"بوزقام","gov_name_ar":"القصرين","gov_name_en":"Kasserine","lat":"35.11553515","lon":"8.809562622","registeredVoters_par14":"234","signingVoters_par14":"122","registeredVoters_pres14":"234"},{"signingVoters_pres14":"75","id":"241","center_name":"","center_name_ar":"م إبتدائية الجمال - نصر الله ا?حواز","registeredVoters_mun18":"262","mun_name_ar":"نصر الله","gov_name_ar":"القيروان","gov_name_en":"Kairouan","lat":"35.20465294","lon":"9.786766746","registeredVoters_par14":"","signingVoters_par14":"","registeredVoters_pres14":"215"},{"signingVoters_pres14":"89","id":"242","center_name":"E.P. BROUTA -DHARER BENJOUDER","center_name_ar":"م إبتدائية بروتة - ذراع بن جودر","registeredVoters_mun18":"262","mun_name_ar":"الفحص","gov_name_ar":"زغوان","gov_name_en":"Zaghouan","lat":"36.24887258","lon":"10.01854652","registeredVoters_par14":"191","signingVoters_par14":"106","registeredVoters_pres14":"191"},{"signingVoters_pres14":"58","id":"243","center_name":"E.P.ERRAGBA MANSOURA EST","center_name_ar":"م إبتدائية الرقبة - المنصورة الشرقية","registeredVoters_mun18":"263","mun_name_ar":"المنصورة","gov_name_ar":"سيدي بوزيد","gov_name_en":"Sidi Bouzid","lat":"34.728725","lon":"9.1080402","registeredVoters_par14":"195","signingVoters_par14":"90","registeredVoters_pres14":"195"},{"signingVoters_pres14":"85","id":"244","center_name":"E.P.ESSEMAILIA NADHOUR","center_name_ar":"م إبتدائية السماعلية - الناظور","registeredVoters_mun18":"263","mun_name_ar":"ماجل بلعباس","gov_name_ar":"القصرين","gov_name_en":"Kasserine","lat":"34.74441314","lon":"8.654680054","registeredVoters_par14":"220","signingVoters_par14":"124","registeredVoters_pres14":"220"},{"signingVoters_pres14":"140","id":"245","center_name":"E.P.AIN GARSA JRISSA SUD","center_name_ar":"م إبتدائية عين القارصة - الجريصة الجنوبية","registeredVoters_mun18":"263","mun_name_ar":"الجريصة","gov_name_ar":"الكاف","gov_name_en":"Le Kef","lat":"35.821553","lon":"8.6293526","registeredVoters_par14":"246","signingVoters_par14":"156","registeredVoters_pres14":"246"},{"signingVoters_pres14":"153","id":"246","center_name":"E.P.EL AMEL  B.GUERDEN SUD","center_name_ar":"م إبتدائية ا?مل بنقردان - بن قردان الجنوبية","registeredVoters_mun18":"264","mun_name_ar":"بن قردان","gov_name_ar":"مدنين","gov_name_en":"Medenine","lat":"33.13525275","lon":"11.20106087","registeredVoters_par14":"228","signingVoters_par14":"156","registeredVoters_pres14":"228"},{"signingVoters_pres14":"86","id":"247","center_name":"E.P.GHABGHOUB SIDI ELHANI","center_name_ar":"م إبتدائية غبغوب سيدي الهاني - سيدي الهاني الجنوبية","registeredVoters_mun18":"264","mun_name_ar":"سيدي الهاني","gov_name_ar":"سوسة","gov_name_en":"Sousse","lat":"35.692523","lon":"10.403692","registeredVoters_par14":"233","signingVoters_par14":"131","registeredVoters_pres14":"233"},{"signingVoters_pres14":"137","id":"248","center_name":"E.P.AZAYZA MERETH","center_name_ar":"م إبتدائية العزائزة - مارث","registeredVoters_mun18":"265","mun_name_ar":"مارث","gov_name_ar":"قابس","gov_name_en":"Gabes","lat":"33.580435","lon":"10.272226","registeredVoters_par14":"200","signingVoters_par14":"126","registeredVoters_pres14":"200"},{"signingVoters_pres14":"81","id":"249","center_name":"E.P.DIAYRIA GHRISSE EST","center_name_ar":"م إبتدائية الديايرية - الغريس الشرقية","registeredVoters_mun18":"265","mun_name_ar":"مزونة","gov_name_ar":"سيدي بوزيد","gov_name_en":"Sidi Bouzid","lat":"34.604287","lon":"9.7900068","registeredVoters_par14":"189","signingVoters_par14":"120","registeredVoters_pres14":"189"},{"signingVoters_pres14":"65","id":"250","center_name":"E.P.OULED AMOR  EL AMRIA","center_name_ar":"م إبتدائية أو?د عمر - الق?ل","registeredVoters_mun18":"265","mun_name_ar":"منزل بوزيان","gov_name_ar":"سيدي بوزيد","gov_name_en":"Sidi Bouzid","lat":"34.641396","lon":"9.3141589","registeredVoters_par14":"224","signingVoters_par14":"136","registeredVoters_pres14":"224"},{"signingVoters_pres14":"136","id":"251","center_name":"E.P.EL AROUGUE OUEDRAN NORD","center_name_ar":"م إبتدائية العروق - ودران الشمالي","registeredVoters_mun18":"265","mun_name_ar":"بئر علي بن خليفة","gov_name_ar":"صفاقس","gov_name_en":"Sfax","lat":"34.742936","lon":"9.9371894","registeredVoters_par14":"225","signingVoters_par14":"154","registeredVoters_pres14":"225"},{"signingVoters_pres14":"170","id":"252","center_name":"E.P.EL KHEROUA EL MBARKIA","center_name_ar":"م إبتدائية الخروع - المباركية","registeredVoters_mun18":"265","mun_name_ar":"أولاد حفوز","gov_name_ar":"سيدي بوزيد","gov_name_en":"Sidi Bouzid","lat":"35.037577","lon":"9.7728426","registeredVoters_par14":"390","signingVoters_par14":"258","registeredVoters_pres14":"390"},{"signingVoters_pres14":"106","id":"253","center_name":"","center_name_ar":"م إبتدائية القوائبية - سيدي خليف","registeredVoters_mun18":"265","mun_name_ar":"أولاد حفوز","gov_name_ar":"سيدي بوزيد","gov_name_en":"Sidi Bouzid","lat":"35.163396","lon":"9.8158229","registeredVoters_par14":"","signingVoters_par14":"","registeredVoters_pres14":"256"},{"signingVoters_pres14":"114","id":"254","center_name":"E.P.SIDI BOUHLEL - RIADH BOUHLEL","center_name_ar":"م إبتدائية سيدي بوه?ل - رياض بوه?ل","registeredVoters_mun18":"265","mun_name_ar":"الجم","gov_name_ar":"المهدية","gov_name_en":"Mahdia","lat":"35.280789","lon":"10.585837","registeredVoters_par14":"245","signingVoters_par14":"161","registeredVoters_pres14":"245"},{"signingVoters_pres14":"70","id":"255","center_name":"","center_name_ar":"م إبتدائية سيدي احمد - الفتح","registeredVoters_mun18":"265","mun_name_ar":"بوحجلة","gov_name_ar":"القيروان","gov_name_en":"Kairouan","lat":"35.433935","lon":"10.08112","registeredVoters_par14":"","signingVoters_par14":"","registeredVoters_pres14":"185"},{"signingVoters_pres14":"100","id":"256","center_name":"","center_name_ar":"م إبتدائية ا?بيرة - زغدود","registeredVoters_mun18":"265","mun_name_ar":"الوسلاتية","gov_name_ar":"القيروان","gov_name_en":"Kairouan","lat":"35.9235164","lon":"9.719984491","registeredVoters_par14":"","signingVoters_par14":"","registeredVoters_pres14":"238"},{"signingVoters_pres14":"110","id":"257","center_name":"E.P.BIR NAKHLA SIDI MTIR","center_name_ar":"م إبتدائية بئرالنخلة - سيدي مطير","registeredVoters_mun18":"265","mun_name_ar":"تاجروين","gov_name_ar":"الكاف","gov_name_en":"Le Kef","lat":"36.031978","lon":"8.6465189","registeredVoters_par14":"248","signingVoters_par14":"130","registeredVoters_pres14":"248"},{"signingVoters_pres14":"131","id":"258","center_name":"E.P.FRECHICHE ZAAFRAN","center_name_ar":"م إبتدائية الفراشيش - الزعفران","registeredVoters_mun18":"265","mun_name_ar":"زعفران دير الكاف","gov_name_ar":"الكاف","gov_name_en":"Le Kef","lat":"36.145066","lon":"8.8762393","registeredVoters_par14":"245","signingVoters_par14":"169","registeredVoters_pres14":"245"},{"signingVoters_pres14":"90","id":"259","center_name":"E.P.MARKEZ BOUZID - SIDI MEDYEN","center_name_ar":"م إبتدائية مركز بوزيد - سيدي مدين","registeredVoters_mun18":"265","mun_name_ar":"بهرة","gov_name_ar":"الكاف","gov_name_en":"Le Kef","lat":"36.319795","lon":"8.8966578","registeredVoters_par14":"228","signingVoters_par14":"128","registeredVoters_pres14":"228"},{"signingVoters_pres14":"138","id":"260","center_name":"E.P.CITE EL MONGI SLIM MGHIRA ENZEL","center_name_ar":"م إبتدائية حي المنجي سليم المغيرة إنزال","registeredVoters_mun18":"265","mun_name_ar":"سيدي حسين","gov_name_ar":"تونس","gov_name_en":"Tunis","lat":"36.7102938","lon":"10.14280051","registeredVoters_par14":"248","signingVoters_par14":"177","registeredVoters_pres14":"248"},{"signingVoters_pres14":"","id":"261","center_name":"","center_name_ar":"م إبتدائية سيدي قويدر - عين السنوسي","registeredVoters_mun18":"265","mun_name_ar":"الناظور عين الصبح","gov_name_ar":"جندوبة","gov_name_en":"Jendouba","lat":"36.8578037","lon":"8.892150146","registeredVoters_par14":"","signingVoters_par14":"","registeredVoters_pres14":""},{"signingVoters_pres14":"172","id":"262","center_name":"E.P.KAMBOUT RMEDA","center_name_ar":"م إبتدائية كمبوت رمادة","registeredVoters_mun18":"266","mun_name_ar":"رمادة","gov_name_ar":"تطاوين","gov_name_en":"Tataouine","lat":"32.298191","lon":"10.308378","registeredVoters_par14":"256","signingVoters_par14":"197","registeredVoters_pres14":"256"},{"signingVoters_pres14":"103","id":"263","center_name":"","center_name_ar":"م إبتدائية عيثة النساء - وادي الحجل","registeredVoters_mun18":"266","mun_name_ar":"حاجب العيون","gov_name_ar":"القيروان","gov_name_en":"Kairouan","lat":"35.32435392","lon":"9.613408222","registeredVoters_par14":"","signingVoters_par14":"","registeredVoters_pres14":"226"},{"signingVoters_pres14":"104","id":"264","center_name":"E.P.H'MAIMA","center_name_ar":"م إبتدائية الحميمة","registeredVoters_mun18":"266","mun_name_ar":"قلعة سنان","gov_name_ar":"الكاف","gov_name_en":"Le Kef","lat":"35.904157","lon":"8.3654989","registeredVoters_par14":"230","signingVoters_par14":"131","registeredVoters_pres14":"230"},{"signingVoters_pres14":"111","id":"265","center_name":"E.P.OUM LABOUAB ANCIENNE","center_name_ar":"م إبتدائية أم ا?بواب القديمة","registeredVoters_mun18":"266","mun_name_ar":"العمايم","gov_name_ar":"زغوان","gov_name_en":"Zaghouan","lat":"36.16900282","lon":"9.817594765","registeredVoters_par14":"260","signingVoters_par14":"132","registeredVoters_pres14":"260"},{"signingVoters_pres14":"98","id":"266","center_name":"E.P.JERBNA BOU SALEM-SKEB","center_name_ar":"م إبتدائية جربنة بوسالم - كساب","registeredVoters_mun18":"266","mun_name_ar":"بلطة بوعوان","gov_name_ar":"جندوبة","gov_name_en":"Jendouba","lat":"36.75276","lon":"8.958837","registeredVoters_par14":"209","signingVoters_par14":"110","registeredVoters_pres14":"209"},{"signingVoters_pres14":"","id":"267","center_name":"E.P.SABAA AOUINET - NEFAT","center_name_ar":"م إبتدائية سبع عوينات - نفات","registeredVoters_mun18":"266","mun_name_ar":"ماطر","gov_name_ar":"بنزرت","gov_name_en":"Bizerte","lat":"37.038849","lon":"9.78087","registeredVoters_par14":"251","signingVoters_par14":"174","registeredVoters_pres14":""},{"signingVoters_pres14":"135","id":"268","center_name":"","center_name_ar":"م إبتدائية هنشير الطاحونة - البسباسية","registeredVoters_mun18":"266","mun_name_ar":"أوتيك","gov_name_ar":"بنزرت","gov_name_en":"Bizerte","lat":"37.040955","lon":"9.968522","registeredVoters_par14":"","signingVoters_par14":"","registeredVoters_pres14":"254"},{"signingVoters_pres14":"","id":"269","center_name":"","center_name_ar":"م إبتدائية عين سالم - الهشيم","registeredVoters_mun18":"267","mun_name_ar":"حاسي الفريد","gov_name_ar":"القصرين","gov_name_en":"Kasserine","lat":"34.96868","lon":"9.0144224","registeredVoters_par14":"","signingVoters_par14":"","registeredVoters_pres14":""},{"signingVoters_pres14":"108","id":"270","center_name":"E.P.TYAIRA CHOALEB","center_name_ar":"م إبتدائية الطيايرة - شع?ب","registeredVoters_mun18":"267","mun_name_ar":"منزل شاكر","gov_name_ar":"صفاقس","gov_name_en":"Sfax","lat":"35.065387","lon":"10.40673","registeredVoters_par14":"196","signingVoters_par14":"140","registeredVoters_pres14":"196"},{"signingVoters_pres14":"57","id":"271","center_name":"E.P. BAYADHIN MARKEZ MOSBEH","center_name_ar":"م إبتدائية البياضين - مركز مصباح","registeredVoters_mun18":"267","mun_name_ar":"الحنشة","gov_name_ar":"صفاقس","gov_name_en":"Sfax","lat":"35.134238","lon":"10.645938","registeredVoters_par14":"170","signingVoters_par14":"78","registeredVoters_pres14":"170"},{"signingVoters_pres14":"64","id":"272","center_name":"E.P.LOUZA ANCIENNE","center_name_ar":"م إبتدائية اللوزة القديمة","registeredVoters_mun18":"267","mun_name_ar":"كسرى","gov_name_ar":"سليانة","gov_name_en":"Siliana","lat":"35.73322326","lon":"9.250302657","registeredVoters_par14":"208","signingVoters_par14":"78","registeredVoters_pres14":"208"},{"signingVoters_pres14":"","id":"273","center_name":"E.P.ET'TADHAMEN KEF DERBI  GAFSA","center_name_ar":"م إبتدائية التضامن كاف دربي قفصة","registeredVoters_mun18":"268","mun_name_ar":"قفصة","gov_name_ar":"قفصة","gov_name_en":"Gafsa","lat":"34.611437","lon":"8.5485178","registeredVoters_par14":"242","signingVoters_par14":"145","registeredVoters_pres14":""},{"signingVoters_pres14":"82","id":"274","center_name":"E.P.JAROUALA SUD DOULEB","center_name_ar":"م إبتدائية الجروالة الجنوبية - الدو?ب","registeredVoters_mun18":"268","mun_name_ar":"الشرائع مشرق الشمس","gov_name_ar":"القصرين","gov_name_en":"Kasserine","lat":"35.293721","lon":"9.110683","registeredVoters_par14":"216","signingVoters_par14":"127","registeredVoters_pres14":"216"},{"signingVoters_pres14":"97","id":"275","center_name":"E.P.BANNOURIA KARFOUR AKSSABE","center_name_ar":"م إبتدائية بنورية قعفور - ا?قصاب","registeredVoters_mun18":"268","mun_name_ar":"قعفور","gov_name_ar":"سليانة","gov_name_en":"Siliana","lat":"36.172815","lon":"9.3319801","registeredVoters_par14":"252","signingVoters_par14":"138","registeredVoters_pres14":"252"},{"signingVoters_pres14":"123","id":"276","center_name":"E.P.FARDOUINE EL Thaouaouda","center_name_ar":"م إبتدائية الفردوين - غزالة","registeredVoters_mun18":"268","mun_name_ar":"غزالة","gov_name_ar":"بنزرت","gov_name_en":"Bizerte","lat":"37.089898","lon":"9.561596","registeredVoters_par14":"244","signingVoters_par14":"141","registeredVoters_pres14":"244"},{"signingVoters_pres14":"67","id":"277","center_name":"E.P.ENNAJAH ELSSALAMA","center_name_ar":"م إبتدائية النجاح - الس?مة","registeredVoters_mun18":"269","mun_name_ar":"بئر الحفي","gov_name_ar":"سيدي بوزيد","gov_name_en":"Sidi Bouzid","lat":"34.822932","lon":"9.4024132","registeredVoters_par14":"255","signingVoters_par14":"98","registeredVoters_pres14":"255"},{"signingVoters_pres14":"163","id":"278","center_name":"E.P.HAMMAM  SKHOUN HAMMAM BAYADHE SUD","center_name_ar":"م إبتدائية حمام السخون - حمام بياضة الشمالية","registeredVoters_mun18":"269","mun_name_ar":"الكريب","gov_name_ar":"سليانة","gov_name_en":"Siliana","lat":"36.42308515","lon":"8.945918825","registeredVoters_par14":"260","signingVoters_par14":"196","registeredVoters_pres14":"260"},{"signingVoters_pres14":"","id":"279","center_name":"","center_name_ar":"م إبتدائية عين الرقاد","registeredVoters_mun18":"269","mun_name_ar":"الخليدية","gov_name_ar":"بن عروس","gov_name_en":"Ben Arous","lat":"36.544302","lon":"10.190205","registeredVoters_par14":"","signingVoters_par14":"","registeredVoters_pres14":""},{"signingVoters_pres14":"","id":"280","center_name":"E.P.OUED LASFAR KEF DERBI","center_name_ar":"م إبتدائية واد ا?صفر قفصة - كاف دربي","registeredVoters_mun18":"270","mun_name_ar":"قفصة","gov_name_ar":"قفصة","gov_name_en":"Gafsa","lat":"34.585473","lon":"8.6091348","registeredVoters_par14":"270","signingVoters_par14":"210","registeredVoters_pres14":""},